id	type	DescriptionTitle	PriceLabel	ListingDate	ReListingDate	Address	Suburb	State	PostCode	Property.lat	Property.lon	PropertyType	Agency.Id	Agency.Type	Agency.Name	Agent.Name	Beds	Baths	Cars	EER	PlotSize	Features
179319996	SALES_RESIDENTIAL	NO STAMP DUTY PAYABLE UP TO $800,000^ - Last few remaining!	$579,900	2021-06-22 10:42:07	2024-03-08 00:15:00	Sierra Gungahlin - FREE MORTGAGE FOR 12 MONTHS*	Gungahlin	ACT	2912	-35.1876348	149.1385266	APARTMENT	925024	Agent	The Property Collective | Projects	Will Honey	2.0	1	1	7.3		[]
179447874	SALES_RESIDENTIAL	Retire to 59 Melba Street	By Negotiation	2021-05-04 13:25:06	2024-04-18 00:15:00	Brindabella Court in Downer - Retire to 59 Melba Street	Downer	ACT	2602	-35.2434172194321	149.142552121288	OTHER	700513	Agent	Brindabella Court in Downer	John Vilskersts		0	0			[]
179638406	SALES_RESIDENTIAL	NO STAMP DUTY PAYABLE UP TO $800,000^ - Limited	$769,900	2021-06-22 10:46:48	2024-03-08 00:15:00	Sierra Gungahlin - FREE MORTGAGE FOR 12 MONTHS*	Gungahlin	ACT	2912	-35.1876348	149.1385266	APARTMENT	925024	Agent	The Property Collective | Projects	Will Honey	2.0	1	1	6.0		[]
179638416	SALES_RESIDENTIAL	Display apartment open at 70 Efkapidis St GUNGHALIN	$429,900	2021-06-22 10:43:07	2024-06-06 00:46:50	Sierra Gungahlin - DISPLAY APARTMENT NOW OPEN FOR VIEWING!	Gungahlin	ACT	2912	-35.1876348	149.1385266	APARTMENT	925024	Agent	The Property Collective | Projects	Will Honey	1.0	1	0	6.0		[]
179684819	SALES_RESIDENTIAL	New land at Googong	By Negotiation	2021-07-07 10:00:57	2024-06-21 00:31:00	New Land - Googong Central	Googong	NSW	2620	-35.44469973	149.22763541	LAND	263325	Agent	Googong Township Realty	Leon Buchanan		0	0			[]
179691333	SALES_RESIDENTIAL	Spacious 3 Bedroom Penthouse Apartment	$1,850,000	2021-07-23 09:23:10	2024-01-09 00:15:00	The Shard - Coming Soon to Woden Town Centre	Phillip	ACT	2606	-35.345972470331	149.083952387242	OTHER	3250	Agent	LJ Hooker Project Marketing	Andrew Ligdopoulos	3.0	3	3	6.0		[]
179691334	SALES_RESIDENTIAL	3 Bedroom Apartment	$849,000+	2021-07-23 09:23:01	2024-01-09 00:15:00	The Shard - Coming Soon to Woden Town Centre	Phillip	ACT	2606	-35.345972470331	149.083952387242	OTHER	3250	Agent	LJ Hooker Project Marketing	Andrew Ligdopoulos	3.0	2	2	6.0		[]
179695210	SALES_RESIDENTIAL	3 Bedroom Apartment	$819,000+	2021-07-23 09:22:58	2024-01-09 00:15:01	The Shard - Coming Soon to Woden Town Centre	Phillip	ACT	2606	-35.345972470331	149.083952387242	OTHER	3250	Agent	LJ Hooker Project Marketing	Andrew Ligdopoulos	3.0	2	2	6.0		[]
179696718	SALES_RESIDENTIAL	Spacious 3 Bedroom Apartment	$1,175,000+	2021-07-23 09:22:55	2024-01-09 00:15:00	The Shard - Coming Soon to Woden Town Centre	Phillip	ACT	2606	-35.345972470331	149.083952387242	OTHER	3250	Agent	LJ Hooker Project Marketing	Andrew Ligdopoulos	3.0	2	3	6.0		[]
179696719	SALES_RESIDENTIAL	4 Bedroom Penthouse Apartment	$2,945,000	2021-07-23 09:23:07	2024-07-07 00:45:51	The Shard - Coming Soon to Woden Town Centre	Phillip	ACT	2606	-35.3446625732817	149.08364425041	OTHER	3250	Agent	LJ Hooker Project Marketing	Andrew Ligdopoulos	4.0	3	3	6.0	958.0	[]
179708026	SALES_RESIDENTIAL	1 Bedroom Apartment	$499,000+	2021-07-23 09:22:47	2024-01-09 00:15:00	The Shard - Coming Soon to Woden Town Centre	Phillip	ACT	2606	-35.345972470331	149.083952387242	OTHER	3250	Agent	LJ Hooker Project Marketing	Andrew Ligdopoulos	1.0	1	1	6.0		[]
179708027	SALES_RESIDENTIAL	2 Bedroom Ensuite Apartment	$679,000+	2021-07-23 09:22:50	2024-01-09 00:15:00	The Shard - Coming Soon to Woden Town Centre	Phillip	ACT	2606	-35.345972470331	149.083952387242	OTHER	3250	Agent	LJ Hooker Project Marketing	Andrew Ligdopoulos	2.0	2	2	6.0		[]
179708028	SALES_RESIDENTIAL	1 Bedroom + MPR Apartment	$539,900+	2021-07-23 09:22:52	2024-04-08 00:15:01	The Shard - Coming Soon to Woden Town Centre	Phillip	ACT	2606	-35.345972470331	149.083952387242	OTHER	3250	Agent	LJ Hooker Project Marketing	Andrew Ligdopoulos	1.0	1	1	6.0		[]
179801662	SALES_RESIDENTIAL	Great Investment Opportunity With Tenant Already In Place	$389,000	2023-03-17 13:46:45	2024-04-10 08:44:34	402/4 Grazier Lane	Belconnen	ACT	2617	-35.2405392157587	149.072310197762	UNIT	435947	Agent	Leader Capital Real Estate	Tony Yip	1.0	1	1	6.0		['AIR_CONDITIONING', 'AIR_CONDITIONING_OTHER']
180005288	SALES_RESIDENTIAL	Now is the time to plan to ditch the mower and the weeds ... ready to move in later this year	$835,000+	2021-11-23 13:01:06	2024-02-08 11:17:39	21 Snodgrass Crescent	Kambah	ACT	2902	-35.3939372903414	149.063880389114	RETIREMENT_VILLAGE	546401	Agent	Marigal Gardens	Michaela Howard	3.0	2	1			['AIR_CONDITIONING_SPLIT_SYSTEM', 'DISHWASHER', 'DOUBLE_GLAZED_WINDOWS', 'INTERCOM', 'SHOWER', 'SOLAR_PANELS', 'UNDERGROUND_PARKING']
180104133	SALES_RESIDENTIAL	1 Bedroom Apartments	$429,900+	2021-12-09 07:15:41	2024-06-12 00:41:50	Boulevard - Take a Walk Down the Boulevard	Denman Prospect	ACT	2611	-35.30125	149.032694	APARTMENT	3250	Agent	LJ Hooker Project Marketing	James Herbert	1.0	1	1	5.1		[]
180104142	SALES_RESIDENTIAL	2 Bedroom + Study Apartments	$714,000+	2021-12-09 07:15:36	2024-02-27 00:15:00	Boulevard - Take A Walk Down The Boulevard	Denman Prospect	ACT	2611	-35.30125	149.032694	APARTMENT	3250	Agent	LJ Hooker Project Marketing	James Herbert	2.0	2	2	5.1		[]
180104168	SALES_RESIDENTIAL	1 Bedroom + Study Apartments	$459,900+	2021-12-09 07:15:32	2024-06-12 00:41:50	Boulevard - Take a Walk Down the Boulevard	Denman Prospect	ACT	2611	-35.30125	149.032694	APARTMENT	3250	Agent	LJ Hooker Project Marketing	James Herbert	1.0	1	1	5.1		[]
180104169	SALES_RESIDENTIAL	2 Bedroom, 2 Car Space Apartments	$661,000+	2021-12-09 07:15:54	2024-02-27 00:15:00	Boulevard - Take A Walk Down The Boulevard	Denman Prospect	ACT	2611	-35.30125	149.032694	APARTMENT	3250	Agent	LJ Hooker Project Marketing	James Herbert	2.0	2	2	5.1		[]
180113061	SALES_RESIDENTIAL	Spacious 3 Bedroom Apartments	$1,039,000+	2021-12-09 07:15:47	2024-02-27 00:15:00	Boulevard - Take A Walk Down The Boulevard	Denman Prospect	ACT	2611	-35.30125	149.032694	APARTMENT	3250	Agent	LJ Hooker Project Marketing	James Herbert	3.0	2	2	5.1		[]
180250162	SALES_RESIDENTIAL	2 Bedroom Apartment with Study	$720,000+	2022-01-19 13:18:17	2024-07-07 00:45:52	Nue - A Brand Nue Gungahlin	Gungahlin	ACT	2912	-35.189608219237	149.14267598698	APARTMENT	3250	Agent	LJ Hooker Project Marketing	James Herbert	2.0	2	2	5.1		[]
180250163	SALES_RESIDENTIAL	3 Bedroom Apartment	$1,071,000+	2022-01-19 13:19:24	2024-04-08 00:15:01	Nue - A Brand Nue Gungahlin	Gungahlin	ACT	2912	-35.189608219237	149.14267598698	APARTMENT	3250	Agent	LJ Hooker Project Marketing	James Herbert	3.0	2	2	5.1		[]
180256981	SALES_RESIDENTIAL	1 Bedroom Apartment	$475,000+	2022-01-19 13:19:40	2024-07-07 00:45:52	Nue - A Brand Nue Gungahlin	Gungahlin	ACT	2912	-35.189608219237	149.14267598698	APARTMENT	3250	Agent	LJ Hooker Project Marketing	James Herbert	1.0	1	1	5.1		[]
180271178	SALES_RESIDENTIAL	1 Bedroom Apartment with Study	$520,000+	2022-01-19 13:19:04	2024-07-07 00:45:52	Nue - A Brand Nue Gungahlin	Gungahlin	ACT	2912	-35.189608219237	149.14267598698	APARTMENT	3250	Agent	LJ Hooker Project Marketing	James Herbert	1.0	1	1	5.1		[]
180271179	SALES_RESIDENTIAL	3 Bedroom Townhouse	$924,000+	2022-07-26 14:25:16	2024-01-17 00:15:00	Nue - A Brand Nue Gungahlin	Gungahlin	ACT	2912	-35.189608219237	149.14267598698	TOWNHOUSE	3250	Agent	LJ Hooker Project Marketing	James Herbert	3.0	2	2	5.0		[]
180271206	SALES_RESIDENTIAL	2 Bedroom Townhouse	$729,900+	2022-04-04 11:05:10	2024-03-24 00:15:00	Nue - A Brand Nue Gungahlin	Gungahlin	ACT	2912	-35.189608219237	149.14267598698	TOWNHOUSE	3250	Agent	LJ Hooker Project Marketing	James Herbert	2.0	2	2	5.0		[]
180409360	SALES_RESIDENTIAL	FIRST CLASS LOCATION & LIFESTYLE	$2,850,000	2022-03-02 00:00:00	2024-01-11 12:29:53	26 Bertel Crescent	Chapman	ACT	2611	-35.3618110052309	149.042655200658	HOUSE	210176	Agent	LJ Hooker Woden/Weston	Jane Macken	4.0	3	4	3.0	1145.0	['CUBBY_HOUSE', 'DOUBLE_GLAZED_WINDOWS', 'ELECTRIC_GARAGE_DOORS', 'ENCLOSED_BACKYARD', 'ENTRANCE_HALL', 'FENCING', 'FORMAL_LOUNGE_ROOM', 'HEATING_GAS_CENTRAL', 'IRRIGATION', 'OFF_STREET_PARKING', 'SHOWER', 'SLAB_CONSTRUCTION', 'THREE_PHASE_POWER', 'UNDERGROUND_POWERLINES', 'WALK_IN_PANTRY']
180487488	SALES_RESIDENTIAL	Oversized 3 bedroom townhouse with 60sqm garage	$779,000+	2022-04-01 00:00:00	2024-06-24 00:52:10	SHINE - Limited time offer to buy off the plan and pay zero stamp duty	Taylor	ACT	2913	-35.1514357611317	149.117593485634	TOWNHOUSE	3250	Agent	LJ Hooker Project Marketing	David Shi	3.0	2	2	6.0		[]
180523180	SALES_RESIDENTIAL	179sqm 4 bedroom townhouse with 60sqm garage	$925,000	2022-04-20 00:00:00	2024-03-23 00:15:00	SHINE - Limited time offer to buy off the plan and pay zero stamp duty	Taylor	ACT	2913	-35.1514357611317	149.117593485634	TOWNHOUSE	3250	Agent	LJ Hooker Project Marketing	David Shi	4.0	3	2	6.0		[]
180544549	SALES_RESIDENTIAL	MOVE IN NOW! North-facing 3 bedroom with double garage	By Negotiation	2022-04-20 12:42:15	2024-01-10 00:15:00	FORM - North-facing 3 bedroom with double garage	Coombs	ACT	2611	-35.324221228339	149.046105961388	OTHER	615239	Agent	Elly Property Group	Branko Laic	3.0	2	2	7.0		[]
180552419	SALES_RESIDENTIAL	75% sold. Now is the time to plan to downsize later this year	$630,000+	2022-04-26 08:01:15	2024-02-08 11:15:18	21 Snodgrass Crescent	Kambah	ACT	2902	-35.3939372903414	149.063880389114	RETIREMENT_VILLAGE	546401	Agent	Marigal Gardens	Michaela Howard	2.0	2	1			['AIR_CONDITIONING_SPLIT_SYSTEM', 'DISHWASHER', 'DOUBLE_GLAZED_WINDOWS', 'INTERCOM', 'SHOWER', 'SOLAR_PANELS', 'UNDERGROUND_PARKING']
180572843	SALES_RESIDENTIAL	Vacant 742m2 block in the heart of Queanbeyan	By Negotiation	2022-04-27 00:00:00	2024-03-22 09:20:35	2a Ingleside Road	Karabar	NSW	2620	-35.3606961419744	149.221293183057	LAND	637551	Agent	Luxe Residential Canberra	Tim Stafford	0.0	0	0		742.0	[]
180572972	SALES_RESIDENTIAL	Everything you need	$1,390,000+	2023-12-01 08:59:22	2024-03-03 00:15:00	MADE - Unit 1, 31 Berrigan Street	O'Connor	ACT	2602	-35.2581638	149.1285066	TOWNHOUSE	700494	Agent	Hive Property	Matt Shipard	3.0	2	2	6.0		[]
180638019	SALES_RESIDENTIAL	Unit 8 Ashton	$779,000	2023-02-23 10:33:54	2024-02-08 13:25:13	ASHTON - Unit 8	Strathnairn	ACT	2615	-35.23267986	148.98629381	OTHER	687413	Agent	Blackshaw Projects	Daniel Beames	3.0	2	2	6.0		[]
180638030	SALES_RESIDENTIAL	Unit 16 Ashton	$750,000	2023-02-23 10:33:44	2024-05-08 00:35:00	ASHTON - Unit 16	Strathnairn	ACT	2615	-35.23267986	148.98629381	TOWNHOUSE	687413	Agent	Blackshaw Projects	Matt Peden	3.0	2	2	6.0		[]
180639739	SALES_RESIDENTIAL	W2 - Final Developer Release	$589,900+	2024-02-12 15:17:39	2024-05-12 00:52:40	W2 - 2 Bedroom Apartment | 401	Phillip	ACT	2606	-35.3445785847681	149.084993110154	OTHER	3250	Agent	LJ Hooker Project Marketing	David Shi	2.0	1	1	7.2	2029.0	['ALLOCATED_CAR_SPACE']
180642861	SALES_RESIDENTIAL	Unit 12 Ashton	$850,000+	2023-02-23 10:33:39	2024-02-08 13:24:09	ASHTON - Unit 12	Strathnairn	ACT	2615	-35.23267986	148.98629381	OTHER	687413	Agent	Blackshaw Projects	Daniel Beames	3.0	2	2	6.0		[]
180673836	SALES_RESIDENTIAL	Unit 9 Ashton	$779,000	2023-02-23 10:33:49	2024-02-08 13:25:40	ASHTON - Unit 9	Strathnairn	ACT	2615	-35.23267986	148.98629381	OTHER	687413	Agent	Blackshaw Projects	Daniel Beames	3.0	2	2	6.0		[]
180722522	SALES_RESIDENTIAL	One Bedroom Apartment - Selling fast	$499,000+	2022-06-23 13:44:20	2024-03-14 00:15:00	Calypso - One Bedroom Apartment - Selling fast	Dickson	ACT	2602	-35.255562762125	149.133523567629	APARTMENT	2539	Developer	Art Group	Rita Feng	1.0	1	1	6.0		['ALLOCATED_CAR_SPACE']
180722523	SALES_RESIDENTIAL	Spacious Two Bedroom Apartment with 2 parks under $800K - Perfect for investors and home buyers.	$775,000+	2022-06-23 13:44:28	2024-01-17 00:15:00	Calypso - Spacious Apartment with 2 car park	Dickson	ACT	2602	-35.255562762125	149.133523567629	APARTMENT	2539	Developer	Art Group	Rita Feng	2.0	2	2	6.2		['ALLOCATED_CAR_SPACE']
180722524	SALES_RESIDENTIAL	Two Bedroom Sunset Views	$699,000+	2022-06-23 13:44:41	2024-01-17 00:15:00	Calypso - Two Bedroom Sunset Views	Dickson	ACT	2602	-35.255562762125	149.133523567629	APARTMENT	2539	Developer	Art Group	Rita Feng	2.0	2	1	6.2		['ALLOCATED_CAR_SPACE']
180722530	SALES_RESIDENTIAL	Large 2 bedroom with extra study - Popular option	$780,000+	2022-06-23 13:45:46	2024-06-12 00:41:51	Calypso - Large 2 bedroom with extra study - Popular option	Dickson	ACT	2602	-35.255562762125	149.133523567629	APARTMENT	2539	Developer	Art Group	Rita Feng	2.0	2	1	6.1		['ALLOCATED_CAR_SPACE']
180722531	SALES_RESIDENTIAL	Spacious PENTHOUSE with large private outdoor area and beautiful mountain view	$1,295,000	2022-06-23 13:45:32	2024-06-12 00:41:51	Calypso - Three Bedroom Penthouse with large private roof top garden	Dickson	ACT	2602	-35.255562762125	149.133523567629	APARTMENT	2539	Developer	Art Group	Rita Feng	3.0	3	2	6.0		[]
180722532	SALES_RESIDENTIAL	Three Bedroom Two Storey LOFT in the North East corner with mountain view	$1,295,000	2022-06-23 13:44:13	2024-06-12 00:41:51	Calypso - Three Bedroom LOFT in the North East corner with mountain view	Dickson	ACT	2602	-35.255562762125	149.133523567629	APARTMENT	2539	Developer	Art Group	Rita Feng	3.0	3	2	5.6		[]
180734706	SALES_RESIDENTIAL	North Facing Courtyard- Last ONE Available- 2 park, big courtyard, under $800K	$755,000	2022-06-23 13:44:48	2024-06-12 00:41:51	Calypso - North Facing Courtyard- LAST AVAIALBLE	Dickson	ACT	2602	-35.255562762125	149.133523567629	APARTMENT	2539	Developer	Art Group	Rita Feng	2.0	2	1	5.3		['ALLOCATED_CAR_SPACE']
180784967	SALES_RESIDENTIAL	Exquisite Land and house package	$1,500,000	2022-07-05 00:00:00	2024-05-15 07:59:04	34 Churcher Crescent	Whitlam	ACT	2611	-35.2724576	149.0449171	HOUSE	686753	Agent	Jada Building Projects Pty Ltd	Jada Building Projects	4.0	3	2	6.0	510.0	[]
180789453	SALES_RESIDENTIAL	Exquisite Double-Storey Penthouse with Unrivalled Views	By Negotiation	2022-07-07 00:00:00	2024-07-02 13:19:22	10/49 Hampton Circuit	Yarralumla	ACT	2600	-35.3111798864073	149.109474519261	APARTMENT	863374	Agent	Above Property Group	Matt Nicholls	3.0	4	2	6.0		['AIR_CONDITIONING_REVERSE_CYCLE', 'ALLOCATED_CAR_SPACE', 'BROADBAND', 'DISHWASHER', 'OUTDOOR_ENTERTAINING_AREA']
180790455	SALES_RESIDENTIAL	"""Get in fast to secure this unique opportunity - New build in progress!!!"	$1,700,000-$1,800,000	2022-07-07 00:00:00	2024-04-24 15:22:45	Lambrigg Road	Googong	NSW	2620	-35.44469973	149.22763541	LAND	285646	Agent	White Rhino Property Googong-Queanbeyan-Jerrabomberra	Gavin Van Zyl	0.0	0	0		660.0	[]
180792813	SALES_RESIDENTIAL	Home Sweet Home !	$775,000+	2022-07-08 00:00:00	2024-03-07 11:35:50	56 Kunapalari Street	Throsby	ACT	2914	-35.1945987460354	149.163481769565	TOWNHOUSE	514317	Agent	Impact Properties Canberra	Mandeep Singh	3.0	3	2	5.5		[]
180809268	SALES_RESIDENTIAL	Glasshouse 4 Bed + 2 Bath + 2 Car + Dual Frontage + Nature Park	$1,488,800-$1,538,800	2023-01-12 11:55:37	2024-04-06 00:15:00	The Markets Residences - Glasshouse 4 Bed + 2 Bath + 2 Car + Nature Park	Belconnen	ACT	2617	-35.23549696	149.06767884	INVESTMENT_PROPERTY	139235	Agent	Archer Canberra	Sasha Trpkovski	4.0	2	2	7.0		['AIR_CONDITIONING_REVERSE_CYCLE', 'DISHWASHER', 'DOUBLE_GLAZED_WINDOWS', 'OUTDOOR_ENTERTAINING_AREA', 'PLANS_APPROVED', 'SOLAR_PANELS', 'STUDY', 'WALK_IN_PANTRY']
180809348	SALES_RESIDENTIAL	North facing Penthouse with 166m2 of combined living space.	$1,595,000	2022-08-18 15:05:11	2024-02-09 00:15:00	Woden Green - Tower 1 - Unit 1502 - 3 Bedroom 'Signature Collection'	Phillip	ACT	2606	-35.34698705	149.09091846	APARTMENT	869644	Agent	Hindmarsh	Will Honey - The Property Collective	3.0	2	2	5.2		['AIR_CONDITIONING_REVERSE_CYCLE', 'ALLOCATED_CAR_SPACE', 'DOUBLE_GLAZED_WINDOWS', 'NEW_CONSTRUCTION', 'POWDER_ROOM', 'STUDY', 'WALK_IN_PANTRY', 'WALK_IN_ROBE']
180835788	SALES_RESIDENTIAL	Built with an award winning builder	$499,000+	2022-07-25 00:00:00	2024-06-17 11:30:57	(no street name provided)	Taylor	ACT	2913	-35.1494991063368	149.120998830683	HOUSE_AND_LAND_PACKAGE	928923	Agent	Sunny Homes ACT	Umang Dabhi	4.0	3	2	7.0		[]
180843776	SALES_RESIDENTIAL	$0 Stamp Duty payable for Woden Green apartments up to $800,000*	$767,500+	2022-07-29 15:28:42	2024-04-19 00:15:00	Woden Green - Tower 2 -Type D - North East Facing 2 bedroom apartment	Phillip	ACT	2606	-35.34698705	149.09091846	APARTMENT	869644	Agent	Hindmarsh	Will Honey	2.0	2	2	6.3		['ALLOCATED_CAR_SPACE']
180843777	SALES_RESIDENTIAL	Vivace - 3 Bedroom with Rumpus/Gym	$849,900+	2022-08-22 21:43:09	2024-02-13 00:15:00	Vivace - Oversized 3 bedroom with rumpus room	Throsby	ACT	2914	-35.1940442687849	149.164838069381	OTHER	615239	Agent	Elly Property Group	Branko Laic	3.0	2	2	7.6		[]
180905436	SALES_RESIDENTIAL	An Address Unlike Any Other: This Is Canberra's Finest Brand New Home	Expressions of Interest	2022-08-18 09:42:00	2024-06-06 10:55:58	701/71 Constitution Avenue	Campbell	ACT	2612	-35.29143124	149.14507671	APARTMENT	572389	Agent	Belle Property Canberra	Bree Currall	4.0	3	4	7.0		['AIR_CONDITIONING', 'AIR_CONDITIONING_OTHER', 'ALLOCATED_CAR_SPACE']
180924403	SALES_RESIDENTIAL	Vacant Block of Opportunity!	$690,000	2022-09-01 15:02:20	2024-06-25 14:28:28	9 Keith Bain Crest	Whitlam	ACT	2611	-35.2773458247344	149.042012350505	LAND	888993	Agent	New Door Properties	Gurjant Singh	0.0	0	0		495.0	[]
180927493	SALES_RESIDENTIAL	Visit our display apartment located on Sutherland Crescent, Taylor (opposite Margaret Hendry School)	$652,500	2023-06-22 14:57:50	2024-02-14 10:48:30	SkyHaus - Display Apartment Now Open	Taylor	ACT	2913	-35.152311152176	149.115167479104	APARTMENT	1023923	Agent	Courtside Property Group	Nic Geou	2.0	2	2	6.0		[]
180927500	SALES_RESIDENTIAL	Visit our display apartment located on Sutherland Crescent, Taylor (opposite Margaret Hendry School)	$652,500	2023-06-22 14:57:43	2024-02-14 10:48:13	SkyHaus - Display Apartment Now Open	Taylor	ACT	2913	-35.152311152176	149.115167479104	APARTMENT	1023923	Agent	Courtside Property Group	Nic Geou	2.0	2	2	6.0		['AIR_CONDITIONING_SPLIT_SYSTEM', 'DISHWASHER', 'DOUBLE_GLAZED_WINDOWS', 'SHOWER']
180927501	SALES_RESIDENTIAL	Visit our display apartment located on Sutherland Crescent, Taylor (opposite Margaret Hendry School)	$715,000	2023-06-22 14:57:38	2024-02-14 10:47:56	SkyHaus - Display Apartment Now Open	Taylor	ACT	2913	-35.152311152176	149.115167479104	APARTMENT	1023923	Agent	Courtside Property Group	Nic Geou	2.0	2	2	6.0		['AIR_CONDITIONING_SPLIT_SYSTEM', 'DISHWASHER', 'DOUBLE_GLAZED_WINDOWS', 'SOLAR_PANELS']
180936287	SALES_RESIDENTIAL	Garden Villa 2 Bed + 2 Bath + 2 Car + Nature Park	$748,800-$788,800	2023-02-09 00:00:00	2024-05-03 00:41:50	The Markets Residences - Garden Villa 2 Bed + 2 Bath + 2 Car + Nature Park	Belconnen	ACT	2617	-35.2466508234228	149.066813553252	OTHER	139235	Agent	Archer Canberra	Sasha Trpkovski	2.0	2	2	6.4	6078.0	['AIR_CONDITIONING_REVERSE_CYCLE', 'BROADBAND', 'DOUBLE_GLAZED_WINDOWS', 'FAMILY_ROOM', 'NEW_CONSTRUCTION', 'OUTDOOR_ENTERTAINING_AREA', 'SAUNA', 'STUDY_NOOK', 'SUNROOM', 'SWIMMING_POOL', 'UNDERGROUND_PARKING']
180936288	SALES_RESIDENTIAL	The Markets Residences - Sun Villa - 3 Bed + 3 Bath + 2 Car + 2 Gardens	$998,800-$1,048,800	2023-01-12 12:05:28	2024-07-05 00:22:50	The Markets Residences - The Markets Residences - Sun Villa 3 Bed 3 Bath 2 Car 2 Gardens	Belconnen	ACT	2617	-35.2466508234228	149.066813553252	OTHER	139235	Agent	Archer Canberra	Sasha Trpkovski	3.0	3	2	7.1	6078.0	['AIR_CONDITIONING_REVERSE_CYCLE', 'ALARM', 'DISHWASHER', 'DOUBLE_GLAZED_WINDOWS', 'ENCLOSED_BACKYARD', 'HEATING_WOOD_FIRE', 'MOUNTAIN_VIEWS', 'OUTDOOR_PIZZA_OVEN', 'SPA_OUTDOOR', 'STUDY', 'UNDERGROUND_PARKING']
180936296	SALES_RESIDENTIAL	Perfect Townhouse Alternative - 3 Bed+ 2 Bath + 2 Car + EV + Sustainability	$968,800-$998,800	2023-01-12 12:08:18	2024-01-07 00:15:00	The Markets Residences - Perfect Townhouse Alternative = 3 Bd + 2 bth + 2 Living	Belconnen	ACT	2617	-35.23549696	149.06767884	APARTMENT	139235	Agent	Archer Canberra	Sasha Trpkovski	3.0	2	2	7.0		['AIR_CONDITIONING_REVERSE_CYCLE', 'FAMILY_ROOM', 'STUDY_NOOK', 'SUNROOM', 'WALK_IN_PANTRY']
180936299	SALES_RESIDENTIAL	Visit our display apartment located on Sutherland Crescent, Taylor (opposite Margaret Hendry School)	$589,000	2023-06-22 14:57:54	2024-02-14 10:47:41	SkyHaus - Display Apartment Now Open	Taylor	ACT	2913	-35.152311152176	149.115167479104	APARTMENT	1023923	Agent	Courtside Property Group	Nic Geou	2.0	2	2	6.0		['AIR_CONDITIONING_SPLIT_SYSTEM', 'DISHWASHER', 'DOUBLE_GLAZED_WINDOWS', 'SHOWER']
180942742	SALES_RESIDENTIAL	Exciting opportunity awaits	$500,000-$525,000	2022-09-01 00:00:00	2024-02-23 11:14:29	28 Lonergan Drive	Jumping Creek	NSW	2620	-35.374573725739	149.255167535827	LAND	135415	Agent	Ray White Queanbeyan/Jerrabomberra	Brad O'Mara		0	0		615.0	[]
180960360	SALES_RESIDENTIAL	No.11 State Circle - Move in next year!	$3,850,000	2023-07-06 15:24:50	2024-04-25 09:12:55	No. 11 State Circle - Unearth something truly rare	Forrest	ACT	2603	-35.3127767718552	149.123979054796	TOWNHOUSE	12	Agent	Blackshaw Manuka	Mario Sanfrancesco	3.0	5	3	6.1		[]
180987393	SALES_RESIDENTIAL	Location! Location! Location!	$599,000+	2022-09-19 11:22:12	2024-06-25 14:33:32	2/253 Northbourne Avenue	Lyneham	ACT	2602	-35.2573455116527	149.132115870341	APARTMENT	888993	Agent	New Door Properties	Gurjant Singh	2.0	2	1	6.0		[]
180990365	SALES_RESIDENTIAL	EXQUISITE FAMILY HOME IN PREMIER LOCATION	Offers Over $1,889,000	2022-09-20 07:22:02	2024-02-01 08:11:00	18 Swagman Street	Lawson	ACT	2617	-35.2297646608382	149.093586410991	HOUSE	937423	Agent	Blackshaw Weston Creek & Molonglo	Sean Rogers	5.0	3	2	5.5	450.0	[]
181009947	SALES_RESIDENTIAL	14 Storksbill Terrace | DA approved, construction commenced	$820,000	2023-02-09 09:49:01	2024-06-19 02:26:30	VIVA - 14 Storksbill Terrace	South Jerrabomberra	NSW	2620	-35.403472308712	149.165934159386	TOWNHOUSE	700494	Agent	Hive Property	Tom Wiggins	4.0	2	2			[]
181016659	SALES_RESIDENTIAL	Two Quality Brick Homes On One Block.	$2,295,000 ONO	2022-09-29 17:10:50	2024-01-11 09:23:07	182 Valley Drive	Royalla	NSW	2620	-35.5247308419857	149.179550105323	HOUSE	967643	Agent	Rapport Property	Marc Donohue	7.0	3	6		57500.0	['AIR_CONDITIONING_REVERSE_CYCLE', 'DISHWASHER', 'GARDEN_SHED', 'OUTDOOR_ENTERTAINING_AREA']
181032558	SALES_RESIDENTIAL	Calling All Investors	$1,250,000	2024-02-28 11:24:16	2024-04-06 00:15:01	Hakea - Investment 5 Bedroom Townhouse	Denman Prospect	ACT	2611	-35.29538	149.0233	TOWNHOUSE	80917	Agent	Ray White Canberra	Samuel Fitzsimmons	5.0	4	2	6.3		[]
181032564	SALES_RESIDENTIAL	Black Diamond - Type C-2B	$577,000	2024-05-18 17:01:48		Aspen Village - Type C-2A - 309/26 Cynthea Teague Crescent	Greenway	ACT	2900	-35.4224737256734	149.073622597378	APARTMENT	220765	Agent	GEOCON	GEOCON Canberra	2.0	2	2	5.0		[]
181033660	SALES_RESIDENTIAL	$0 Stamp Duty payable for Woden Green apartments up to $800,000*	$670,000+	2022-10-21 11:10:38	2024-04-13 00:15:00	Woden Green - Woden Green Tower Two Selling Now	Phillip	ACT	2606	-35.34698705	149.09091846	APARTMENT	869644	Agent	Hindmarsh	Will Honey	2.0	2	1	6.0		['ALLOCATED_CAR_SPACE']
181033661	SALES_RESIDENTIAL	'Signature Collection' - Limited number of Penthouses available.	$1,400,000+	2022-10-21 11:10:16	2024-07-12 00:54:20	Woden Green - Selection of three-bedroom of Penthouses available	Phillip	ACT	2606	-35.34698705	149.09091846	APARTMENT	925024	Agent	The Property Collective | Projects	Ben Wilson	3.0	3	2	6.0		['ALLOCATED_CAR_SPACE']
181033687	SALES_RESIDENTIAL	Move in Spring 2024!	$899,000	2022-10-06 18:44:20	2024-06-27 00:51:50	Hakea - 3 Bedroom Townhouse	Denman Prospect	ACT	2611	-35.29538	149.0233	TOWNHOUSE	80917	Agent	Ray White Canberra	Samuel Fitzsimmons	3.0	2	1	6.3		[]
181035123	SALES_RESIDENTIAL	Now Vacant - Brilliant Apartment across the Parkland !	$485,000+	2022-10-06 16:52:13	2024-05-28 13:06:09	92/75 Elizabeth Jolley Crescent	Franklin	ACT	2913	-35.1880286429719	149.144374733744	APARTMENT	514317	Agent	Impact Properties Canberra	Shaun Iqbal	2.0	2	1	4.5		['AIR_CONDITIONING', 'AIR_CONDITIONING_OTHER', 'BROADBAND', 'DISHWASHER']
181040971	SALES_RESIDENTIAL	Black Diamond Final Release - Type 3B	$775,900+	2022-10-17 09:36:48	2024-04-24 00:15:00	Aspen Village - Black Diamond Final Release - New Precinct in Tuggeranong	Greenway	ACT	2900	-35.4224737256734	149.073622597378	APARTMENT	220765	Agent	GEOCON	GEOCON Canberra	3.0	2	2	5.0		[]
181049118	SALES_RESIDENTIAL	1710m2 block - New proposed zoning laws mean this block is likely able to be subdivided, DA already in place for 5 bed 3 bath property	Auction 03/02/24	2022-10-13 11:01:27	2024-01-10 13:42:13	14 Dale Circuit	Kambah	ACT	2902	-35.3987655988422	149.061066601068	HOUSE	377855	Agent	My Morris	Zac Morris	3.0	2	2	0.5	1710.0	[]
181050817	SALES_RESIDENTIAL	The Best Block in Sth Jerra??? With a custom designed house to suit! Come and see for yourself.	$970,000	2022-10-13 12:37:07	2024-04-10 12:30:19	9 Speargrass Road	Tralee	NSW	2620	-35.4041191199771	149.169193230926	HOUSE_AND_LAND_PACKAGE	567569	Agent	Aird Property Group	Daniel	4.0	2	2		418.0	[]
181050823	SALES_RESIDENTIAL	Dream Home - Dream Location - Complete House and Land Package	$1,199,000	2022-10-17 16:03:55	2024-02-28 09:49:49	(no street name provided)	Macnamara	ACT	2615	-35.21907022	148.97707034	HOUSE_AND_LAND_PACKAGE	348575	Builder	Exhibit Design & Construction	Alex Edwards	4.0	2	2	7.0	439.0	['AIR_CONDITIONING_REVERSE_CYCLE', 'CORE_AREA', 'DISABILITY_FRIENDLY', 'DOUBLE_GLAZED_WINDOWS', 'ELECTRIC_GARAGE_DOORS', 'ENCLOSED_BACKYARD', 'FAMILY_ROOM', 'NEW_CONSTRUCTION', 'RUMPUS_ROOM', 'SEPARATE_TOILET', 'SOLAR_PANELS', 'THREE_PHASE_POWER', 'WALK_IN_PANTRY', 'WALK_IN_ROBE']
181077068	SALES_RESIDENTIAL	Set & Forget	$1,100,000	2024-02-28 11:27:36	2024-04-06 00:15:01	Hakea - Investment 4 Bedroom Townhouse	Denman Prospect	ACT	2611	-35.29538	149.0233	TOWNHOUSE	80917	Agent	Ray White Canberra	Samuel Fitzsimmons	3.0	2	2	6.3		[]
181111665	SALES_RESIDENTIAL	591sqm large corner block with nature reserve and pond at the doorstep	Auction 29/02/24	2022-11-03 09:11:06	2024-02-07 13:02:08	Block 5 Section 109	Denman Prospect	ACT	2611	-35.29640772	149.02482052	LAND	12	Agent	Blackshaw Manuka	Vince Qi	0.0	0	0	0.0	591.0	[]
181112178	SALES_RESIDENTIAL	1 Bedroom + Full Study Apartments	$494,900+	2022-11-23 09:23:03	2024-05-16 00:31:00	The Chandler - Everything You Need, Nothing You Don't	Belconnen	ACT	2617	-35.23549696	149.06767884	OTHER	3250	Agent	LJ Hooker Project Marketing	James Herbert	1.0	1	1	6.0		[]
181113947	SALES_RESIDENTIAL	3 Bedroom Apartment	$990,900+	2022-11-07 15:20:31	2024-04-30 00:15:00	The Chandler - Everything You Need, Nothing You Don't	Belconnen	ACT	2617	-35.23549696	149.06767884	OTHER	3250	Agent	LJ Hooker Project Marketing	James Herbert	3.0	2	2	6.0		[]
181114978	SALES_RESIDENTIAL	Welcome to Royalla Reserve Estate.	$925,000	2024-01-25 17:04:59	2024-06-30 00:16:20	Royalla Reserve - 156 Holland Drive	Royalla	NSW	2620	-35.47408818	149.1558974	LAND	210215	Agent	LJ Hooker Country Canberra	Troy Thompson		0	0			[]
181115008	SALES_RESIDENTIAL	Welcome to Royalla Reserve Estate.	$1,135,000	2024-01-25 17:02:07		Royalla Reserve - Lot 14	Royalla	NSW	2620	-35.4734658043827	149.156023450144	LAND	210215	Agent	LJ Hooker Country Canberra	Daniel Gilbert		0	0			[]
181120717	SALES_RESIDENTIAL	1 Bedroom Apartment	$474,900+	2022-11-14 14:19:54	2024-05-07 00:51:00	The Chandler - Everything You Need, Nothing You Don't	Belconnen	ACT	2617	-35.23549696	149.06767884	OTHER	3250	Agent	LJ Hooker Project Marketing	James Herbert	1.0	1	1	6.0		[]
181120727	SALES_RESIDENTIAL	2 Bedroom Ensuite Apartment	$669,900+	2022-11-28 16:43:42	2024-05-21 00:30:10	The Chandler - Everything You Need, Nothing You Don't	Belconnen	ACT	2617	-35.23549696	149.06767884	OTHER	3250	Agent	LJ Hooker Project Marketing	James Herbert	2.0	2	1	6.0		[]
181120728	SALES_RESIDENTIAL	Yering 248 - $10,000 Outdoors Domain Gift Card!	$1,911,400	2024-01-25 16:55:46		Royalla Reserve - 143 Holland Drive	Royalla	NSW	2620	-35.4734658043827	149.156023450144	LAND	210215	Agent	LJ Hooker Country Canberra	Daniel Gilbert		0	0			[]
181153682	SALES_RESIDENTIAL	CONTEMPORARY - SINGLE LEVEL	$860,000-$900,000	2024-02-05 12:49:39		16 Numeralia Drive	Jerrabomberra	NSW	2619	-35.3821025153847	149.210478091291	HOUSE	685713	Agent	Sandy Funston Real Estate	Sandy (Sandra) Funston	3.0	2	2		466.0	['AIR_CONDITIONING_EVAPORATIVE', 'DINING_ROOM', 'DISHWASHER', 'DUCTED_VACCUM', 'ELECTRIC_GARAGE_DOORS', 'ENCLOSED_BACKYARD', 'ENTRANCE_HALL', 'FAMILY_ROOM', 'FENCING', 'FORMAL_LOUNGE_ROOM', 'HEATING_GAS_CENTRAL', 'OFF_STREET_PARKING', 'OUTDOOR_ENTERTAINING_AREA', 'SEPARATE_TOILET', 'SHOWER', 'WALK_IN_ROBE']
181163352	SALES_RESIDENTIAL	Dual occupancy potential not to be missed	Auction 02/03/24	2022-11-18 16:42:10	2024-02-08 12:21:53	24 Beasley Street	Pearce	ACT	2607	-35.3654613242022	149.087440794188	HOUSE	917333	Agent	The Property Collective	Lisa Harper	4.0	2	2	0.5	936.0	['AIR_CONDITIONING', 'AIR_CONDITIONING_OTHER']
181176641	SALES_RESIDENTIAL	Cul De Sac Delight in Heart of Rivett	Auction 25/05/24	2022-11-24 00:00:00	2024-04-26 14:16:10	11 Geebung Place	Rivett	ACT	2611	-35.3489713695586	149.034479156663	HOUSE	928774	Agent	Bastion Property Group	Theo Koutsikamanis	4.0	2	2	2.0	782.0	['ALLOCATED_CAR_SPACE']
181183049	SALES_RESIDENTIAL	Priced to sell! Great opportunity awaits. Please contact agent prior to inspecting!	$670,000	2022-11-25 16:12:02	2024-01-02 11:16:14	28/41 Leahy Close	Narrabundah	ACT	2604	-35.3433180352959	149.142881353701	TOWNHOUSE	73	Agent	Luton Properties Manuka	Kate Yates	3.0	2	2	5.0		['ALLOCATED_CAR_SPACE']
181189199	SALES_RESIDENTIAL	69/12 Hawksbill Street Throsby	$899,900+	2022-12-01 21:44:06	2024-05-24 00:50:40	Vivace - Large 4 bedroom 2 storey townhome with double garage	Throsby	ACT	2914	-35.1940442687849	149.164838069381	OTHER	615239	Agent	Elly Property Group	Sales Team	4.0	3	0	7.4		[]
181189210	SALES_RESIDENTIAL	Brand new single level apartment without compromise!	$729,000+	2023-06-08 10:54:28	2024-06-02 00:28:10	Molonglo Falls - U1.10/2 Terry Connelly Street	Coombs	ACT	2611	-35.32359535	149.04315576	APARTMENT	3250	Agent	LJ Hooker Project Marketing	Keenan Veraar	3.0	2	2	6.0		[]
181216153	SALES_RESIDENTIAL	Turn Key Home in Sought After Pocket	$1,999,000+	2022-12-08 12:32:02	2024-01-11 10:44:54	12 Rosenthal Street	Campbell	ACT	2612	-35.2825946315778	149.158480848012	HOUSE	572389	Agent	Belle Property Canberra	Alexander Smout	5.0	2	4	1.0	755.0	[]
181222880	SALES_RESIDENTIAL	Now Rented for $480 per week till 27 April 2024	$405,000+	2022-12-12 11:32:24	2024-03-19 14:29:17	188/1 Anthony Rolfe Avenue	Gungahlin	ACT	2912	-35.1819409901959	149.130024482757	APARTMENT	514317	Agent	Impact Properties Canberra	Shaun Iqbal	1.0	1	1	6.0		['AIR_CONDITIONING', 'AIR_CONDITIONING_OTHER', 'BROADBAND', 'DISHWASHER', 'GYM', 'OUTDOOR_ENTERTAINING_AREA', 'SWIMMING_POOL']
181229449	SALES_RESIDENTIAL	DA APPROVED!	$815,000	2023-01-19 09:14:53	2024-01-14 00:15:00	EKKO - 3 Bedroom Townhouse DA Approved!	Whitlam	ACT	2611	-35.2991954047437	149.022992984009	TOWNHOUSE	80917	Agent	Ray White Canberra	Samuel Fitzsimmons	3.0	2	2	6.0		[]
181235808	SALES_RESIDENTIAL	Prestige Penthouse + Roof Top Gardens - $1.2m-$1.6m	EOI 24/06/24	2023-02-02 14:26:34	2024-04-27 00:15:00	The Markets Residences - Prestige Penthouse + Roof Top Gardens - $1.2m-$1.8m	Belconnen	ACT	2617	-35.23549696	149.06767884	OTHER	139235	Agent	Archer Canberra	Sasha Trpkovski	3.0	2	2	7.1		['AIR_CONDITIONING_REVERSE_CYCLE', 'ATRIUM', 'CEILING_FANS', 'DISHWASHER', 'DOUBLE_GLAZED_WINDOWS', 'ENCLOSED_BACKYARD', 'FAMILY_ROOM', 'HEATING_WOOD_FIRE', 'MOUNTAIN_VIEWS', 'NEW_CONSTRUCTION', 'OUTDOOR_ENTERTAINING_AREA', 'OUTDOOR_KITCHEN', 'OUTDOOR_PIZZA_OVEN', 'SOLAR_PANELS', 'SPA_OUTDOOR', 'STUDY', 'STUDY_NOOK', 'SUNROOM', 'UNDERGROUND_PARKING', 'WALK_IN_PANTRY', 'WALK_IN_ROBE']
181237089	SALES_RESIDENTIAL	Dual Frontage 3 Bed + 2 bath + 2 car + Winter Garden	$1,180,000-$1,280,000	2023-02-08 09:57:30	2024-05-03 00:41:50	The Markets Residences - Dual Frontage 3 Bed + 2 bath + 2 car + Winter Garden	Belconnen	ACT	2617	-35.2466508234228	149.066813553252	OTHER	139235	Agent	Archer Canberra	Sasha Trpkovski	3.0	2	2	7.8	6078.0	['AIR_CONDITIONING_REVERSE_CYCLE', 'DISABILITY_FRIENDLY', 'DOUBLE_GLAZED_WINDOWS', 'FAMILY_ROOM', 'NEW_CONSTRUCTION', 'OUTDOOR_ENTERTAINING_AREA', 'STUDY_NOOK', 'SUNROOM', 'WALK_IN_PANTRY']
181237091	SALES_RESIDENTIAL	DA APPROVED!	$659,000	2023-01-25 14:29:20	2024-01-20 00:15:00	EKKO - 2 Bedroom Townhouse  DA Approved!	Whitlam	ACT	2611	-35.2991954047437	149.022992984009	TOWNHOUSE	80917	Agent	Ray White Canberra	Samuel Fitzsimmons	2.0	2	1	6.0		[]
181266493	SALES_RESIDENTIAL	Luxurious Brand New Urban Oasis!	$1,149,000+	2023-01-09 00:00:00	2024-02-02 08:46:53	235/81 Cooyong Street	Reid	ACT	2612	-35.2802131258309	149.136662216676	APARTMENT	700494	Agent	Hive Property	Eva Bono	3.0	2	2	6.0		['ALLOCATED_CAR_SPACE']
181279877	SALES_RESIDENTIAL	Fabulous Forrest one bedroom apartment	$525,000	2023-01-12 00:00:00	2024-02-22 10:13:49	6/16 New South Wales Crescent	Forrest	ACT	2603	-35.3151816369933	149.133213135487	HOUSE	1036613	Agent	Independent North	Billy Chen	1.0	1	1	5.5		['ALLOCATED_CAR_SPACE', 'STUDY']
181291696	SALES_RESIDENTIAL	Move In Early Next Year!	$585,000	2023-02-02 10:41:53	2024-04-27 00:15:00	EKKO - 2 Bedroom Apartment DA Approved!	Whitlam	ACT	2611	-35.2991954047437	149.022992984009	APARTMENT	80917	Agent	Ray White Canberra	Samuel Fitzsimmons	2.0	2	1	6.0		['ALLOCATED_CAR_SPACE']
181291697	SALES_RESIDENTIAL	DA APPROVED!	$629,000	2023-01-19 09:14:36	2024-01-14 00:15:00	EKKO - 2 Bedroom + Study DA Approved!	Whitlam	ACT	2611	-35.2991954047437	149.022992984009	APARTMENT	80917	Agent	Ray White Canberra	Samuel Fitzsimmons	2.0	2	2	6.0		[]
181295207	SALES_RESIDENTIAL	Chic City Living	$495,000	2023-01-18 00:00:00	2024-01-06 21:03:42	G03/258 Northbourne Avenue	Dickson	ACT	2602	-35.2572335	149.1332192	APARTMENT	864753	Agent	Cercis Property	Sue Supaphien	1.0	1	1	6.0		['ALLOCATED_CAR_SPACE']
181295461	SALES_RESIDENTIAL	North facing, 2-bedroom, 2-bathroom apartment with flexible room for home office, nursery, or an extension of your living.	$807,500+	2023-01-27 15:50:05	2024-04-21 00:15:00	Woden Green - Tower 2 - 2 Bedroom + Office/Media - Type B	Phillip	ACT	2606	-35.34698705	149.09091846	OTHER	869644	Agent	Hindmarsh	Will Honey	2.0	2	2	5.9		['STUDY']
181295463	SALES_RESIDENTIAL	$0 Stamp Duty payable for Woden Green apartments up to $800,000*	$670,000+	2023-01-27 16:14:31	2024-01-22 00:15:00	Woden Green - Tower 2 - 2 Bedroom - Type G	Phillip	ACT	2606	-35.34698705	149.09091846	OTHER	869644	Agent	Hindmarsh	Will Honey - The Property Collective	2.0	2	1	5.5		[]
181295486	SALES_RESIDENTIAL	G+ 1:1:1 offers two different single-level designs.	$469,000-$509,000	2023-02-23 13:07:16	2024-05-05 00:16:30	G+ - 1 bedroom	Giralang	ACT	2617	-35.2131530021918	149.095797228445	APARTMENT	565869	Agent	TP Dynamics Pty Ltd	Kenneth Kong	1.0	1	1	7.7		[]
181295487	SALES_RESIDENTIAL	G+ 3:2:2 Apartment configuration, single level three bedroom apartments	$849,000-$949,000	2023-02-23 13:07:33	2024-05-26 00:17:30	G+ - 3 bedrooms	Giralang	ACT	2617	-35.2131530021918	149.095797228445	OTHER	565869	Agent	TP Dynamics Pty Ltd	Kenneth Kong	3.0	2	2	7.9		[]
181295506	SALES_RESIDENTIAL	G+ 2:2:1 apartment configuration, single level 2 bedroom apartments	$645,000-$669,000	2023-02-23 13:07:35	2024-05-28 00:42:20	G+ - 2 bedrooms	Giralang	ACT	2617	-35.2131530021918	149.095797228445	OTHER	565869	Agent	TP Dynamics Pty Ltd	Kenneth Kong	2.0	2	1	8.2		[]
181334376	SALES_RESIDENTIAL	New Display Now Open	$549,900	2023-02-16 09:27:53	2024-02-11 00:15:00	Renaissance - R3 - 1 Bed, Garden Views 1C	Griffith	ACT	2603	-35.3210540400516	149.135458562388	APARTMENT	866913	Agent	Morris Property Group	Michael Morris	1.0	1	1	6.4		['ALLOCATED_CAR_SPACE']
181350388	SALES_RESIDENTIAL	An enviable lifestyle awaits	$1,225,000 to $1,275,000	2023-02-07 15:00:50	2024-01-23 13:15:57	401/85 Eyre Street	Kingston	ACT	2604	-35.3138353238348	149.148770242388	APARTMENT	686333	Agent	Francis Properties	Nathan Burraston	3.0	2	2	6.0		[]
181357566	SALES_RESIDENTIAL	Move In Early Next Year!	$999,000	2023-02-09 14:22:38	2024-05-04 00:46:40	EKKO - 3 Bedroom Townhouse	Whitlam	ACT	2611	-35.2991954047437	149.022992984009	TOWNHOUSE	80917	Agent	Ray White Canberra	Samuel Fitzsimmons	3.0	2	4	6.0		[]
181357576	SALES_RESIDENTIAL	Move in ready with flexible settlement terms available. Walk through your apartment before you purchase your brand new city lifestyle.	$874,000	2023-03-17 15:15:29	2024-03-11 00:15:00	CENTO - North West Corner Two Bedroom Apartment	Braddon	ACT	2612	-35.2720374225543	149.130994222442	OTHER	700494	Agent	Hive Property	Josh Morrissey	2.0	2	2	6.0		['ALLOCATED_CAR_SPACE']
181357577	SALES_RESIDENTIAL	Move in ready with flexible settlement terms available. Walk through your apartment before you purchase your brand new city lifestyle.	$510,000	2023-03-17 15:15:07	2024-03-11 00:15:00	CENTO - Luxurious One Bedroom Apartment	Braddon	ACT	2612	-35.2720374225543	149.130994222442	OTHER	700494	Agent	Hive Property	Josh Morrissey	1.0	1	1	6.0		['ALLOCATED_CAR_SPACE']
181357578	SALES_RESIDENTIAL	18 Storksbill Terrace | DA approved, construction commenced	$875,000	2023-02-09 14:44:41	2024-05-04 00:46:40	VIVA - 18 Storksbill Terrace	South Jerrabomberra	NSW	2620	-35.403472308712	149.165934159386	TOWNHOUSE	700494	Agent	Hive Property	Tom Wiggins	3.0	2	2			[]
181357586	SALES_RESIDENTIAL	Move in ready with flexible settlement terms available. Walk through your apartment before you purchase your brand new city lifestyle.	$626,000	2023-03-17 15:13:38	2024-03-11 00:15:00	CENTO - Luxurious Two Bedroom Apartment	Braddon	ACT	2612	-35.2720374225543	149.130994222442	OTHER	700494	Agent	Hive Property	Josh Morrissey	2.0	1	1	6.0		['ALLOCATED_CAR_SPACE']
181357596	SALES_RESIDENTIAL	Move in ready with flexible settlement terms available. Walk through your apartment before you purchase your brand new city lifestyle.	$560,000	2023-03-17 15:15:18	2024-03-11 00:15:01	CENTO - North Facing Dual Balcony One Bedroom Apartment	Braddon	ACT	2612	-35.2720374225543	149.130994222442	OTHER	700494	Agent	Hive Property	Josh Morrissey	1.0	1	1	6.0		['ALLOCATED_CAR_SPACE']
181357598	SALES_RESIDENTIAL	Move in ready with flexible settlement terms available. Walk through your apartment before you purchase your brand new city lifestyle.	$516,000	2023-03-17 15:14:42	2024-03-11 00:15:01	CENTO - One Bedroom Plus Powder Room	Braddon	ACT	2612	-35.2720374225543	149.130994222442	OTHER	700494	Agent	Hive Property	Josh Morrissey	1.0	1	1	6.0		['ALLOCATED_CAR_SPACE']
181357599	SALES_RESIDENTIAL	Move in ready with flexible settlement terms available. Walk through your apartment before you purchase your brand new city lifestyle.	$610,000	2023-03-17 15:14:31	2024-03-11 00:15:01	CENTO - North Facing One Bedroom Apartment	Braddon	ACT	2612	-35.2720374225543	149.130994222442	OTHER	700494	Agent	Hive Property	Josh Morrissey	1.0	1	1	6.0		['ALLOCATED_CAR_SPACE']
181357600	SALES_RESIDENTIAL	Move in ready with flexible settlement terms available. Walk through your apartment before you purchase your brand new city lifestyle.	$768,000	2023-03-17 15:14:22	2024-03-11 00:15:01	CENTO - Sunset Views Two Bedroom Apartment	Braddon	ACT	2612	-35.2720374225543	149.130994222442	OTHER	700494	Agent	Hive Property	Josh Morrissey	2.0	2	2	6.0		['ALLOCATED_CAR_SPACE']
181357601	SALES_RESIDENTIAL	Move in ready with flexible settlement terms available. Walk through your apartment before you purchase your brand new city lifestyle.	$985,000	2023-03-17 15:13:57	2024-03-11 00:15:01	CENTO - Premium Oversized North Facing Two Bedroom Apartment	Braddon	ACT	2612	-35.2720374225543	149.130994222442	OTHER	700494	Agent	Hive Property	Josh Morrissey	2.0	2	2	6.0		['ALLOCATED_CAR_SPACE']
181357602	SALES_RESIDENTIAL	Move in ready with flexible settlement terms available. Walk through your apartment before you purchase your brand new city lifestyle.	$728,000	2023-03-17 15:14:12	2024-03-11 00:15:02	CENTO - Spacious East Facing Two Bedroom Apartment	Braddon	ACT	2612	-35.2720374225543	149.130994222442	OTHER	700494	Agent	Hive Property	Josh Morrissey	2.0	1	2	6.0		['ALLOCATED_CAR_SPACE']
181393796	SALES_RESIDENTIAL	Move In Early Next Year!	$720,000	2023-02-22 09:12:03	2024-05-17 00:17:10	EKKO - 2 bedroom townhouse  DA Approved!	Whitlam	ACT	2611	-35.2991954047437	149.022992984009	TOWNHOUSE	80917	Agent	Ray White Canberra	Samuel Fitzsimmons	2.0	2	2	6.0		[]
181393804	SALES_RESIDENTIAL	1 Bedroom + Study	$489,900	2023-03-07 10:23:11	2024-03-01 00:15:00	Sierra Gungahlin - FREE MORTGAGE FOR 12 MONTHS*	Gungahlin	ACT	2912	-35.1876348	149.1385266	APARTMENT	925024	Agent	The Property Collective | Projects	Will Honey	1.0	1	1	7.3		[]
181393805	SALES_RESIDENTIAL	3 Bedroom - BRAND NEW TOWNHOMES - MOVE IN NOW	$729,900+	2023-08-01 13:29:37	2024-01-28 00:15:01	Allegro - 3 bedroom with single garage plus car space	Throsby	ACT	2914	-35.1930942258489	149.161882632779	OTHER	615239	Agent	Elly Property Group	Branko Laic	3.0	2	2	7.6		['ALLOCATED_CAR_SPACE']
181398175	SALES_RESIDENTIAL	Unique 5 bedroom triple garage townhome with incredible views	By Negotiation	2023-06-06 22:46:19	2024-05-31 00:25:10	Debut - Unique 5 bedroom townhome - New Display Opening Weekend	Wright	ACT	2611	-35.3120982467055	149.03112927061	OTHER	680183	Agent	Civium (PM) Pty Ltd	Cassandra Cumberland	5.0	2	3	6.0	10751.0	[]
181428586	SALES_RESIDENTIAL	DEBUT - 3 Bedroom Townhome - MOVE IN 2024*	$779,900+	2023-06-06 22:45:26	2024-03-02 00:15:00	Debut - 3 bedroom with single car garage	Wright	ACT	2611	-35.3124955797199	149.030623022412	TOWNHOUSE	680183	Agent	Civium Property Group - Projects	Cassandra Cumberland	3.0	2	1	7.8		[]
181428587	SALES_RESIDENTIAL	Debut - 2 Bedroom Apartment - MOVE IN 2024*	$599,900+	2023-06-06 22:46:47	2024-05-31 00:25:10	Debut - 2 Bedroom Apartment	Wright	ACT	2611	-35.3120982467055	149.03112927061	APARTMENT	680183	Agent	Civium (PM) Pty Ltd	Cassandra Cumberland	2.0	2	1			['ALLOCATED_CAR_SPACE']
181428589	SALES_RESIDENTIAL	Debut - Large 3 Bedroom Townhome with 2.5 bathrooms and 2 car garage - MOVE IN 2024*	$799,900+	2023-06-06 22:45:46	2024-03-02 00:15:00	Debut - 3 bedroom with 2 car garage	Wright	ACT	2611	-35.3124955797199	149.030623022412	OTHER	680183	Agent	Civium Property Group - Projects	Cassandra Cumberland	3.0	2	2	7.8		[]
181429796	SALES_RESIDENTIAL	3 Bedroom - BRAND NEW TOWNHOMES - MOVE IN NOW	$849,900+	2023-08-01 13:28:26	2024-04-27 00:15:00	Allegro - Oversized 3 bedroom with double garage	Throsby	ACT	2914	-35.1930942258489	149.161882632779	OTHER	615239	Agent	Elly Property Group	Sales Team	3.0	2	2	7.9		[]
181429797	SALES_RESIDENTIAL	3 Bedroom with 2 car garage + Storage - BRAND NEW TOWNHOMES - MOVE IN NOW	$779,900+	2023-07-11 11:26:06	2024-07-05 00:22:52	Allegro - Large 3 bedroom townhome with oversized 2 car garage + storage	Throsby	ACT	2914	-35.1930942258489	149.161882632779	OTHER	615239	Agent	Elly Property Group	Sales Team	3.0	2	2	7.3		[]
181429798	SALES_RESIDENTIAL	3 Bedroom - BRAND NEW TOWNHOMES - MOVE IN NOW	$739,900+	2023-07-10 19:41:04	2024-01-06 00:15:00	Allegro - 3 bedroom with double side by side garage	Throsby	ACT	2914	-35.1930942258489	149.161882632779	OTHER	615239	Agent	Elly Property Group	Branko Laic	3.0	2	2	7.7		[]
181429806	SALES_RESIDENTIAL	Debut - 1 Bedroom Apartments and Studios - MOVE IN 2024*	$399,900+	2023-06-06 22:46:07	2024-05-31 00:25:10	Debut - 1 Bedroom Apartments and Studios	Wright	ACT	2611	-35.3120982467055	149.03112927061	APARTMENT	680183	Agent	Civium (PM) Pty Ltd	Cassandra Cumberland	1.0	1	1			['ALLOCATED_CAR_SPACE']
181429807	SALES_RESIDENTIAL	Debut - 4 Bedroom Townhome with amazing views - MOVE IN 2024*	$999,900+	2023-06-06 22:45:57	2024-05-31 00:25:10	Debut - 4 Bedroom with rumpus - New Display Opening Weekend	Wright	ACT	2611	-35.3120982467055	149.03112927061	TOWNHOUSE	680183	Agent	Civium (PM) Pty Ltd	Cassandra Cumberland	4.0	2	2	6.0	10751.0	[]
181429816	SALES_RESIDENTIAL	Debut - 3 Bedroom townhome with north-facing park views - MOVE IN 2024*	$799,900+	2023-06-06 22:46:36	2024-03-02 00:15:00	Debut - 3 Bedroom townhome with north-facing park views	Wright	ACT	2611	-35.3124955797199	149.030623022412	TOWNHOUSE	680183	Agent	Civium Property Group - Projects	Cassandra Cumberland	3.0	2	2			[]
181434608	SALES_RESIDENTIAL	FANTASTIC FAMILY HOME IN FISHER	$1,040,000	2023-03-08 10:52:08	2024-03-15 10:23:10	13 Kambalda Crescent	Fisher	ACT	2611	-35.363125828649	149.060903551887	HOUSE	308516	Agent	Michael Potter Real Estate	Alisa Lawrence	4.0	2	2	1.5		[]
181450866	SALES_RESIDENTIAL	Penthouse Living at it Best !	$867,000+	2023-03-14 13:02:11	2024-07-03 13:41:44	1701/6 Gribble Street	Gungahlin	ACT	2912	-35.1821339235982	149.131090545529	APARTMENT	514317	Agent	Impact Properties Canberra	Shaun Iqbal	3.0	2	2	5.0		['AIR_CONDITIONING', 'AIR_CONDITIONING_OTHER', 'BROADBAND', 'DISHWASHER', 'GYM', 'OUTDOOR_ENTERTAINING_AREA', 'SWIMMING_POOL']
181457445	SALES_RESIDENTIAL	Treetops View of Old Kingston and Black Mountain	$780,000+	2023-03-16 00:00:00	2024-03-08 12:13:54	26/10 Burke Crescent	Kingston	ACT	2604	-35.3206210086567	149.146279875118	UNIT	682863	Agent	Hayman Partners	Tyran Murphy	2.0	2	2	6.0		['ALLOCATED_CAR_SPACE']
181477400	SALES_RESIDENTIAL	Discover this Ultra-comfortable Family Home!!	$1,300,000 - $1,400,000	2023-03-23 10:11:21	2024-03-07 08:54:02	27 Balcombe Street	Jerrabomberra	NSW	2619	-35.3993435279769	149.201584614478	HOUSE	285646	Agent	White Rhino Property Googong-Queanbeyan-Jerrabomberra	Gavin Van Zyl	4.0	2	2		991.0	['AIR_CONDITIONING', 'AIR_CONDITIONING_OTHER']
181477547	SALES_RESIDENTIAL	Unparalleled metropolitan design with your own private internal elevator	By Negotiation	2023-03-23 10:52:03	2024-01-18 10:05:13	121 Blamey Crescent	Campbell	ACT	2612	-35.2897717840611	149.153531562641	TOWNHOUSE	12	Agent	Blackshaw Manuka	Vince Qi	3.0	2	2	5.0	1273.0	[]
181477689	SALES_RESIDENTIAL	Settle next year	$531,000	2023-08-02 13:53:23	2024-04-28 00:15:00	New Land - Lot 2244	Googong	NSW	2620	-35.44469973	149.22763541	LAND	263325	Agent	Googong Township Realty	Contact Us		0	0			[]
181477890	SALES_RESIDENTIAL	One of Kingston Place's best apartments.	$899,000+	2023-03-23 00:00:00	2024-04-12 10:32:58	55/21 Dawes Street	Kingston	ACT	2604	-35.3182479525564	149.142431923096	APARTMENT	50	Agent	PURNELL	Nick Purnell	2.0	2	2	6.0		['DISHWASHER', 'INTERCOM']
181478267	SALES_RESIDENTIAL	Wanted a delayed settlement?	$499,000	2023-06-07 13:33:57	2024-06-01 00:59:10	New Land - Lot 2435	Googong	NSW	2620	-35.44469973	149.22763541	LAND	263325	Agent	Googong Township Realty	Contact Us		0	0			[]
181478279	SALES_RESIDENTIAL	DKSN - an unprecedented opportunity	$419,900	2023-03-24 15:21:16	2024-06-16 00:29:40	DKSN - 1 Bedroom Apartment | 111	Dickson	ACT	2602	-35.249641	149.134235	APARTMENT	1036613	Agent	Independent Property Group / North	Phil Smith	1.0	1	0	6.0		[]
181498642	SALES_RESIDENTIAL	The Ultimate Entertainer!	$1,100,000+	2023-03-30 17:10:38	2024-02-02 08:46:00	2502/1 Grazier Lane	Belconnen	ACT	2617	-35.2409709599999	149.0717159385	UNIT	700494	Agent	Hive Property	Eva Bono	3.0	2	2	6.0		['ALLOCATED_CAR_SPACE']
181529084	SALES_RESIDENTIAL	Gorgeous Tri-Level Four Bedroom With Stunning Views	$1,450,000	2023-04-13 09:31:54	2024-02-29 16:25:02	Karinya - Gorgeous Tri-Level Four Bedroom With Stunning Views	Denman Prospect	ACT	2611	-35.30509	149.01538	OTHER	915643	Agent	VERV Property	Jason Roses	4.0	3	2	6.0		[]
181529493	SALES_RESIDENTIAL	Stunning Four Bedroom, Four Bathroom Townhouse	$1,450,000	2023-04-13 09:31:45	2024-05-29 00:38:50	Karinya - Residence 2	Denman Prospect	ACT	2611	-35.30509	149.01538	OTHER	915643	Agent	VERV Property	Jason Roses	4.0	4	2	6.0		[]
181529568	SALES_RESIDENTIAL	Premium Four Bedroom Plus Rumpus	$1,350,000	2023-04-13 09:32:03	2024-02-29 16:25:02	Karinya - Premium Four Bedroom Plus Rumpus	Denman Prospect	ACT	2611	-35.30509	149.01538	OTHER	915643	Agent	VERV Property	Jason Roses	4.0	3	2	6.0		[]
181529607	SALES_RESIDENTIAL	Grand Four Bedroom Plus Study	$1,400,000	2023-04-13 09:31:37	2024-05-29 00:38:50	Karinya - Residence 1	Denman Prospect	ACT	2611	-35.30509	149.01538	OTHER	915643	Agent	VERV Property	Jason Roses	4.0	3	2	6.0		[]
181535024	SALES_RESIDENTIAL	Rare offering - Single level, elevator access	$750,000	2023-04-14 14:50:54	2024-01-08 10:53:51	6/20 De Burgh Street	Lyneham	ACT	2602	-35.2573370880434	149.131643889727	UNIT	928774	Agent	Bastion Property Group	Theo Koutsikamanis	3.0	2	2	6.0		['ALLOCATED_CAR_SPACE']
181537069	SALES_RESIDENTIAL	SECURE A BLOCK OF LAND IN AN ESTABLISHED STREET!	$589,000+	2023-04-15 00:00:00	2024-07-11 13:06:59	8 Fretwell Street	Moncrieff	ACT	2914	-35.1609895540306	149.121812266029	LAND	939233	Agent	Confidence Real Estate	Anish Sebastian		0	0	0.0	518.0	[]
181550730	SALES_RESIDENTIAL	Townhouse 1	$799,000	2023-04-21 15:35:58	2024-04-15 00:15:00	The Lazenby - Townhouse 1	Strathnairn	ACT	2615	-35.23267986	148.98629381	TOWNHOUSE	687413	Agent	Blackshaw Projects	Robert Peaker	2.0	2	2	6.0		['POWDER_ROOM', 'STUDY']
181550731	SALES_RESIDENTIAL	Townhouse 3	$769,000	2023-04-21 15:36:02	2024-04-15 00:15:00	The Lazenby - Townhouse 3	Strathnairn	ACT	2615	-35.23267986	148.98629381	TOWNHOUSE	687413	Agent	Blackshaw Projects	Robert Peaker	2.0	2	2	6.0		['POWDER_ROOM', 'STUDY']
181550732	SALES_RESIDENTIAL	Townhouse 10	$829,000	2023-04-21 15:35:56	2024-01-16 00:15:00	The Lazenby - Townhouse 10	Strathnairn	ACT	2615	-35.23267986	148.98629381	TOWNHOUSE	687413	Agent	Blackshaw Projects	Robert Peaker	2.0	2	2	6.0		['POWDER_ROOM', 'STUDY']
181562636	SALES_RESIDENTIAL	Vacant & Ready for Occupation - Large One Bedroom Apartment near University, Hospital & AIS !	$325,000+	2023-04-26 12:35:04	2024-03-14 13:29:05	21/2 Eardley Street	Bruce	ACT	2617	-35.2412755398231	149.092121476429	APARTMENT	514317	Agent	Impact Properties Canberra	Shaun Iqbal	1.0	1	1	6.0		['AIR_CONDITIONING', 'AIR_CONDITIONING_OTHER', 'AIR_CONDITIONING_REVERSE_CYCLE', 'BROADBAND', 'DISHWASHER']
181568252	SALES_RESIDENTIAL	Your place in the sun	$772,000	2023-05-04 15:19:43	2024-04-28 00:15:00	De Burgh at Northbourne Village - Type 8	Lyneham	ACT	2602	-35.2558248	149.1319679	APARTMENT	510357	Agent	JWLand Development	Natasha Johnson	2.0	2	2	6.0		['ALLOCATED_CAR_SPACE']
181571360	SALES_RESIDENTIAL	Perfect first home or investment opportunity	$495,000	2023-05-04 15:18:19	2024-01-29 00:15:00	De Burgh at Northbourne Village - Type 3A	Lyneham	ACT	2602	-35.2558248	149.1319679	APARTMENT	510357	Agent	JWLand Development	Natasha Johnson	1.0	1	1	6.0		['ALLOCATED_CAR_SPACE']
181584727	SALES_RESIDENTIAL	Stunning family home nestled amongst the rise of O'Malley	$2,750,000	2023-05-04 06:42:08	2024-03-14 07:59:11	7 Callemonda Rise	O'Malley	ACT	2606	-35.3528144662574	149.110830601939	HOUSE	682863	Agent	Hayman Partners	Brett Hayman	6.0	3	3	2.0	2548.0	[]
181585547	SALES_RESIDENTIAL	Brand new corner apartment with 86m2 of indoor & outdoor living	$629,000+	2023-05-04 17:04:50	2024-04-28 00:15:00	Molonglo Falls - U4.16/2 Terry Connolly Street	Coombs	ACT	2611	-35.32359535	149.04315576	APARTMENT	3250	Agent	LJ Hooker Project Marketing	Keenan Veraar	2.0	2	2	6.0		[]
181585549	SALES_RESIDENTIAL	Visit our display apartment located on Sutherland Crescent, Taylor (opposite Margaret Hendry School)	$764,000	2023-11-30 08:23:57	2024-05-14 00:20:10	SkyHaus - Display Apartment Now Open	Taylor	ACT	2913	-35.152311152176	149.115167479104	APARTMENT	1023923	Agent	Courtside Property Group	Nic Geou	2.0	2	2	6.0		[]
181585551	SALES_RESIDENTIAL	Lot 723 - 62 Speargrass Road, Tralee	$607,900	2023-05-16 16:06:02	2024-05-10 00:23:40	South Jerrabomberra - Lot 723	Tralee	NSW	2620	-35.4016883455149	149.167727661133	LAND	593	Agent	The Village Building Co.	Vlada Piven		0	0			[]
181585552	SALES_RESIDENTIAL	Lot 832 - 15 Wiry Dock Road, Tralee	$623,900	2023-05-16 16:17:19	2024-05-10 00:23:40	South Jerrabomberra - Lot 832	Tralee	NSW	2620	-35.4016883455149	149.167727661133	LAND	593	Agent	The Village Building Co.	Vlada Piven		0	0			[]
181586010	SALES_RESIDENTIAL	Spacious 649 sqm Block for sale	$690,000+	2023-05-04 14:32:07	2024-05-20 10:22:03	34 Eric Willmot Way	Macnamara	ACT	2615	-35.2311545	148.9947974	LAND	699003	Agent	One Agency Gungahlin	Yubi Baral		0	0		649.0	[]
181588592	SALES_RESIDENTIAL	Penthouse Opportunity In The Heart Of Woden! Move In May!	$1,499,000	2023-05-05 11:52:10	2024-04-04 11:17:47	Level 23/2301/6 Furzer Street	Phillip	ACT	2606	-35.340931	149.0839204	APARTMENT	988443	Agent	AM Property Agency	Luke Lindley	3.0	2	2	5.0		['AIR_CONDITIONING', 'AIR_CONDITIONING_OTHER', 'ALLOCATED_CAR_SPACE', 'BROADBAND', 'DISHWASHER', 'HEATING_CENTRAL', 'STUDY']
181588646	SALES_RESIDENTIAL	Unmatched lifestyle property, in the heart of it all	$2,250,000+	2024-02-02 15:28:09	2024-02-02 15:28:49	1 Hawken Street	Monash	ACT	2904	-35.4120984971665	149.095004726003	HOUSE	1037783	Agent	PROPERA	Steph Davies	6.0	4	3	3.5	1267.0	[]
181588735	SALES_RESIDENTIAL	Exclusive Bridgepoint address with absolute waterfront views	Auction 17/02/24	2023-05-05 11:12:02	2024-01-15 13:27:37	29/17 Trevillian Quay	Kingston	ACT	2604	-35.3104722444413	149.147212072728	APARTMENT	3498	Agent	Berkely Residential	Simon Richards	3.0	2	2	6.0		[]
181588929	SALES_RESIDENTIAL	Brand New Luxury Townhouse, ready to move into.	$990,000	2023-05-05 12:01:12	2024-01-15 15:31:35	12 Golgerth Street	Denman Prospect	ACT	2611	-35.3022806177061	149.019880583439	TOWNHOUSE	519077	Agent	Boris Property	Boris Teodorowych	4.0	3	2	6.0		['AIR_CONDITIONING', 'AIR_CONDITIONING_OTHER']
181603906	SALES_RESIDENTIAL	Brand new apartment ready to move into.	$899,000+	2023-05-11 00:00:00	2024-02-02 08:45:09	2701/1 Grazier Lane	Belconnen	ACT	2617	-35.240573872706	149.071702578976	APARTMENT	700494	Agent	Hive Property	Eva Bono	3.0	2	2	5.0		['ALLOCATED_CAR_SPACE']
181630477	SALES_RESIDENTIAL	Your corner on the Avenue	$687,000	2023-05-17 10:26:51	2024-02-11 00:15:00	De Burgh at Northbourne Village - Type 19	Lyneham	ACT	2602	-35.2558248	149.1319679	APARTMENT	510357	Agent	JWLand Development	Natasha Johnson	2.0	1	1	6.0		['ALLOCATED_CAR_SPACE']
181648237	SALES_RESIDENTIAL	Brand New Luxurious Home to Enjoy Living !	By Negotiation	2023-05-24 09:10:57	2024-02-01 18:06:42	212 Robin Boyd Crescent	Taylor	ACT	2913	-35.1473124760781	149.10225650867	HOUSE	514317	Agent	Impact Properties Canberra	Shaun Iqbal	4.0	3	4	6.5	376.0	['AIR_CONDITIONING_REVERSE_CYCLE', 'ALLOCATED_CAR_SPACE', 'BROADBAND', 'DISHWASHER', 'OUTDOOR_ENTERTAINING_AREA', 'RUMPUS_ROOM']
181648896	SALES_RESIDENTIAL	APA STUNNING DISPLAY HOME NOW FOR SALE - READY TO MOVE IN!	$1,550,000-$1,600,000	2023-05-24 12:05:17	2024-01-11 09:36:10	1 McPherson Street	Googong	NSW	2620	-35.22823284	148.99661821	HOUSE	192845	Agent	APA Homes	Cindy Ho	4.0	3	2		554.0	['AIR_CONDITIONING_REVERSE_CYCLE', 'ALARM', 'CEILING_FANS', 'DINING_ROOM', 'DISHWASHER', 'DOUBLE_GLAZED_WINDOWS', 'DUCTED_VACCUM', 'ELECTRIC_GARAGE_DOORS', 'ENCLOSED_BACKYARD', 'FAMILY_ROOM', 'FENCING', 'FORMAL_LOUNGE_ROOM', 'IRRIGATION', 'OFF_STREET_PARKING', 'POWDER_ROOM', 'SEPARATE_TOILET', 'SHOWER', 'SLAB_CONSTRUCTION', 'SOLAR_PANELS', 'STUDY', 'WALK_IN_PANTRY', 'WALK_IN_ROBE']
181667021	SALES_RESIDENTIAL	Renovated 3 bedroom home with terrace and views across Yerrabi Pond.	$749,000+	2023-05-31 00:00:00	2024-02-15 12:13:56	6/51 Sandover Circuit	Amaroo	ACT	2914	-35.1757452036767	149.127109249999	APARTMENT	700494	Agent	Hive Property	Bree Prince	3.0	2	2	5.5		[]
181676846	SALES_RESIDENTIAL	Big value for money	$499,000	2023-08-22 15:37:03	2024-05-18 00:35:50	New Land - Lot 1554	Googong	NSW	2620	-35.44469973	149.22763541	LAND	263325	Agent	Googong Township Realty	Contact Us		0	0			[]
181680399	SALES_RESIDENTIAL	Elegant Top Floor Apartment with Stunning Views	$450,000+	2023-06-06 16:02:07	2024-06-26 12:44:41	128/230 Flemington Road	Harrison	ACT	2914	-35.1932763546667	149.152100300968	APARTMENT	533949	Agent	Agent Team Canberra	Steve Lowe	2.0	2	2	6.0		['AIR_CONDITIONING', 'AIR_CONDITIONING_OTHER', 'BROADBAND', 'DISHWASHER', 'OUTDOOR_ENTERTAINING_AREA']
181710517	SALES_RESIDENTIAL	New Display Now Open	$1,299,900	2023-06-19 16:32:05	2024-03-15 00:15:00	Renaissance - 168/3 Light Street Griffith	Griffith	ACT	2603	-35.3210540400516	149.135458562388	OTHER	866913	Agent	Morris Property Group	Michael Morris	3.0	2	2	6.5		['ALLOCATED_CAR_SPACE']
181710527	SALES_RESIDENTIAL	New Display Now Open	$1,199,900	2023-06-19 17:01:07	2024-06-13 00:49:10	Renaissance - 185/3 Light Street Griffith	Griffith	ACT	2603	-35.3210540400516	149.135458562388	OTHER	866913	Agent	Morris Property Group	Gary Woo	2.0	2	2	6.5	2641.0	[]
181713626	SALES_RESIDENTIAL	ENJOY MOUNTAIN VIEWS | Horizon Hill	$1,350,000	2023-07-04 16:50:23	2024-03-30 00:15:00	Horizon Hill - Lot 54	Strathnairn	ACT	2615	-35.23267986	148.98629381	OTHER	578119	Agent	RAWSON COMMUNITIES	Sean Williams	4.0	2	2			[]
181713627	SALES_RESIDENTIAL	ENJOY MOUNTAIN VIEWS | Horizon Hill	$1,008,000	2023-07-04 16:44:39	2024-03-30 00:15:00	Horizon Hill - Lot 50	Strathnairn	ACT	2615	-35.23267986	148.98629381	OTHER	578119	Agent	RAWSON COMMUNITIES	Sean Williams	4.0	2	2			[]
181713628	SALES_RESIDENTIAL	Open for inspections located at 9/48 Speldewinde Street, Strathnairn.	$850,000	2023-06-27 09:06:05	2024-03-23 00:15:02	VIVERE - Unit 10 - 48 Speldewinde Street	Strathnairn	ACT	2615	-35.2220727443651	148.995485049723	TOWNHOUSE	700494	Agent	Hive Property	Matt Shipard	3.0	2	2	6.0		['ALLOCATED_CAR_SPACE']
181713629	SALES_RESIDENTIAL	Open for inspections located at 9/48 Speldewinde Street, Strathnairn.	$775,000	2023-06-30 08:56:53	2024-04-18 09:51:44	VIVERE - Unit 4 - 48 Speldewinde Street	Strathnairn	ACT	2615	-35.2220727443651	148.995485049723	TOWNHOUSE	700494	Agent	Hive Property	Matt Shipard	3.0	2	2	6.0		['ALLOCATED_CAR_SPACE']
181713636	SALES_RESIDENTIAL	STYLISH, SPECTACULAR SCENERY, SEVEN STAR RATED | Horizon Hill	$945,000	2023-07-04 16:42:17	2024-03-30 00:15:00	Horizon Hill - Lot 47	Strathnairn	ACT	2615	-35.23267986	148.98629381	OTHER	578119	Agent	RAWSON COMMUNITIES	Sean Williams	4.0	2	2			[]
181713639	SALES_RESIDENTIAL	Open for inspections located at 9/48 Speldewinde Street, Strathnairn.	$775,000	2023-06-23 13:04:43	2024-04-18 09:53:39	VIVERE - Unit 9 - 48 Speldewinde Street	Strathnairn	ACT	2615	-35.2220727443651	148.995485049723	TOWNHOUSE	700494	Agent	Hive Property	Matt Shipard	3.0	2	2	6.0		['ALLOCATED_CAR_SPACE']
181713640	SALES_RESIDENTIAL	Open for inspections located at 9/48 Speldewinde Street, Strathnairn.	$750,000	2023-06-26 09:55:48	2024-04-18 09:53:00	VIVERE - Unit 12 - 48 Speldewinde Street	Strathnairn	ACT	2615	-35.2220727443651	148.995485049723	TOWNHOUSE	700494	Agent	Hive Property	Tom Wiggins	3.0	2	2	6.0		[]
181713757	SALES_RESIDENTIAL	Open for inspections located at 9/48 Speldewinde Street, Strathnairn.	$775,000	2023-06-29 10:55:07	2024-03-25 00:15:00	VIVERE - Unit 2 - 48 Speldewinde Street	Strathnairn	ACT	2615	-35.2220727443651	148.995485049723	TOWNHOUSE	700494	Agent	Hive Property	Matt Shipard	3.0	2	2	6.0		['ALLOCATED_CAR_SPACE']
181714080	SALES_RESIDENTIAL	Impressive Family Home with Stunning Views	$1,670,000	2023-06-21 10:52:08	2024-01-18 09:42:29	228 Bicentennial Drive	Jerrabomberra	NSW	2619	-35.3970311799416	149.203824659563	HOUSE	368677	Agent	Blewitt Properties	Brenden Blewitt	5.0	3	3			['DISHWASHER', 'GARDEN_SHED', 'HEATING_GAS', 'SPA_OUTDOOR']
181714097	SALES_RESIDENTIAL	Seize the Opportunity to Craft Your Dream Home with Stunning Tinderry Range Views	$580,000	2023-06-21 09:02:02	2024-01-29 10:32:45	69 Captain Robertson Drive	Burra	NSW	2620	-35.5965998432362	149.219734869559	LAND	572389	Agent	Belle Property Canberra	Samantha Linsdell	0.0	0	0		31250.0	[]
181732920	SALES_RESIDENTIAL	Enhance the way you live	$699,000+	2023-06-30 12:11:52	2024-03-26 00:15:00	The Brosnan - 29 Wahlquist Street	Strathnairn	ACT	2615	-35.23267986	148.98629381	OTHER	687413	Agent	Blackshaw Projects	Robert Peaker	3.0	3	2	6.9		[]
181754323	SALES_RESIDENTIAL	Quiet, sunny and refreshed home in the centre of City. Fully-furnished and move-in ready	$440,000	2023-07-06 10:10:44	2024-02-14 10:33:22	502/2 Akuna Street	City	ACT	2601	-35.2820613053219	149.13262909808	APARTMENT	139235	Agent	Archer Canberra	Alex Wang	2.0	1	1	6.0		[]
181754910	SALES_RESIDENTIAL	Extra Large North-Facing 2-Bedroom Apartment, Brand New Carpet, Fresh Painting, Ready to Move Into!	$575,000+	2023-07-06 17:58:18	2024-02-12 07:17:09	63/68 College Street	Belconnen	ACT	2617	-35.2423702506526	149.069714491677	APARTMENT	617829	Agent	Capital Partner Real Estate	Alicia Bai	2.0	2	2	6.0		[]
181758435	SALES_RESIDENTIAL	Your Serene Sanctuary in Macquarie	$645,000+	2023-07-07 11:10:51	2024-07-05 11:44:58	6/15 Bowman Street	Macquarie	ACT	2614	-35.253478224982	149.069180211681	APARTMENT	184995	Agent	Distinct	Nicolas Lecointe	2.0	2	1	4.5		['ALLOCATED_CAR_SPACE', 'STUDY']
181759111	SALES_RESIDENTIAL	Premium Land Opportunity Boasting Spectacular Views	$595,000 - $615,000	2023-07-10 00:00:00	2024-03-25 15:45:58	50 Reginald Road	Googong	NSW	2620	-35.4310531373952	149.222634646941	LAND	971733	Agent	Ward Estate Agents	Greg Ward		0	0		1282.0	[]
181772929	SALES_RESIDENTIAL	Spacious City Retreat	$545,000+	2023-07-13 16:51:28	2024-02-19 10:50:45	107/77 Northbourne Avenue	Turner	ACT	2612	-35.2752056290292	149.128948139363	APARTMENT	864753	Agent	Cercis Property	Sue Supaphien	2.0	1	1	6.0		['AIR_CONDITIONING', 'AIR_CONDITIONING_OTHER', 'BODY_CORPORATE', 'BROADBAND', 'DISHWASHER', 'DOUBLE_GLAZED_WINDOWS', 'ENTRANCE_HALL', 'FULLY_FURNISHED', 'INTERCOM', 'MOUNTAIN_VIEWS', 'OFF_STREET_PARKING', 'OUTDOOR_ENTERTAINING_AREA', 'SHOWER', 'SWIMMING_POOL', 'WASH_CLOSET']
181775657	SALES_RESIDENTIAL	A substantial single level residence on a lush level land holding	By Negotiation	2024-02-29 15:22:53		20 Carstensz Street	Griffith	ACT	2603	-35.330984395282	149.131518099196	HOUSE	3498	Agent	Berkely Residential	Bill Lyristakis	5.0	3	2	4.5		[]
181778746	SALES_RESIDENTIAL	the Opal Package - the Perfect Start!	$790,290	2023-07-15 12:20:32	2024-03-05 15:02:41	(no street name provided)	South Jerrabomberra	NSW	2620	-35.42744717	149.16227889	HOUSE_AND_LAND_PACKAGE	567569	Agent	Aird Property Group	Daniel	3.0	2	2		382.0	[]
181778752	SALES_RESIDENTIAL	Display Suite Now Open	$919,000	2023-08-23 10:45:09	2024-03-07 13:03:08	SALUS - Unit 35	Moncrieff	ACT	2914	-35.15431	149.121079	TOWNHOUSE	700494	Agent	Hive Property	Matt Shipard	4.0	2	2	7.8		[]
181779937	SALES_RESIDENTIAL	CONSTRUCTION COMMENCED	$699,000	2023-08-16 12:15:06	2024-06-05 00:57:10	SALUS - 21	Moncrieff	ACT	2914	-35.15431	149.121079	TOWNHOUSE	3250	Agent	LJ Hooker Project Marketing	David Shi	3.0	2	2	7.1		[]
181779948	SALES_RESIDENTIAL	CONSTRUCTION COMMENCED	$779,000	2023-08-17 15:06:43	2024-06-05 00:57:10	SALUS - 13	Moncrieff	ACT	2914	-35.15431	149.121079	TOWNHOUSE	3250	Agent	LJ Hooker Project Marketing	David Shi	3.0	2	2	6.9		[]
181779949	SALES_RESIDENTIAL	Display Suite Now Open	$719,000	2023-08-21 10:47:15	2024-03-07 13:05:22	SALUS - Unit 2	Moncrieff	ACT	2914	-35.15431	149.121079	TOWNHOUSE	700494	Agent	Hive Property	Matt Shipard	3.0	2	2	6.1		[]
181784353	SALES_RESIDENTIAL	Nest Or Invest	Offers above $739,000	2023-07-18 16:12:05	2024-01-12 14:44:40	16/2 Pipeclay Street	Lawson	ACT	2617	-35.2281597081031	149.086974601083	TOWNHOUSE	563089	Agent	Town Residential	Ajay Kumar	3.0	2	2	6.0		[]
181806221	SALES_RESIDENTIAL	Exquisite Residential Retreat: A Haven of Modern Comfort and Timeless Elegance	$2,800,000+	2024-02-14 13:10:39		56 Euree Street	Reid	ACT	2612	-35.2816539003979	149.14330273159	HOUSE	533949	Agent	Agent Team Canberra	Steve Lowe	4.0	2	3	2.0	1247.0	['AIR_CONDITIONING', 'AIR_CONDITIONING_OTHER', 'DISHWASHER', 'HEATING_WOOD_FIRE', 'OUTDOOR_ENTERTAINING_AREA', 'STUDY']
181807937	SALES_RESIDENTIAL	Stunning Residence with Panoramic Views !	Auction 29/06/24	2023-07-31 00:00:00	2024-06-05 11:36:32	507/4 Grazier Lane	Belconnen	ACT	2617	-35.2400875849914	149.072173099015	APARTMENT	252785	Agent	Luton Properties Gungahlin	Harman Bedi	1.0	1	0	6.0		[]
181818555	SALES_RESIDENTIAL	Stunning 3-bedroom delight in the Heart of Canberra City!	$825,000 - $875,000	2023-08-02 00:00:00	2024-01-25 16:22:07	631/45 Ainslie Avenue	Braddon	ACT	2612	-35.2784604371862	149.136046569097	UNIT	709273	Agent	Carter and Co Agents	James Carter And Nik Brozinic	3.0	2	2	6.0		['ALLOCATED_CAR_SPACE']
181820578	SALES_RESIDENTIAL	Display Suite Now Open - 4/18 Lonsdale Street, Braddon	$1,750,000+	2023-08-15 10:28:16	2024-05-11 00:47:00	Zarah - Unit 8	Turner	ACT	2612	-35.2653980983878	149.129030135354	TOWNHOUSE	700494	Agent	Hive Property	Matt Shipard	3.0	3	2	6.0	1053.0	[]
181824321	SALES_RESIDENTIAL	Majura Magic	Auction 27/03/24	2023-08-03 00:00:00	2024-02-29 12:59:36	7/45 Majura Avenue	Dickson	ACT	2602	-35.2574701115	149.1385479715	APARTMENT	572	Agent	LJ Hooker Dickson	Ryan Hedley	1.0	1	1	6.0		[]
181824961	SALES_RESIDENTIAL	Refreshed Reinvigorated and Inviting	$1,250,000 - $1,300,000	2023-08-03 16:52:01	2024-01-30 12:59:35	9 Kiewa Street	Kaleen	ACT	2617	-35.2180872611157	149.102322057335	HOUSE	188615	Agent	McIntyre Property	Scott Isaacs	4.0	3	2	1.0	734.0	['AIR_CONDITIONING', 'AIR_CONDITIONING_OTHER', 'ALLOCATED_CAR_SPACE', 'STUDY']
181825307	SALES_RESIDENTIAL	Display Suite Now Open - 4/18 Lonsdale Street, Braddon	By Negotiation	2023-08-17 10:52:02	2024-02-13 00:15:00	Zarah - Unit 6	Turner	ACT	2612	-35.2653980983878	149.129030135354	TOWNHOUSE	700494	Agent	Hive Property	Matt Shipard	3.0	2	2	6.0		[]
181826602	SALES_RESIDENTIAL	Sensational New Residence of 390m with Pool	By Negotiation	2023-08-04 10:42:05	2024-02-01 13:57:01	7 Normanby Crescent	Deakin	ACT	2600	-35.3149972552489	149.116626514238	HOUSE	3498	Agent	Berkely Residential	Simon Richards	4.0	3	3	6.5		[]
181837188	SALES_RESIDENTIAL	The Establishment - 1207/90 Swain Street	$819,900+	2023-08-09 11:14:55	2024-02-05 00:15:00	The Establishment - Final 3-Bed with Huge Balcony - 90 Swain Street	Gungahlin	ACT	2912	-35.1804890162095	149.133052705862	APARTMENT	220765	Agent	GEOCON	Dimitri Georgalis - One Agency Brindabella	3.0	2	2	7.3		['AIR_CONDITIONING_REVERSE_CYCLE', 'NEW_CONSTRUCTION', 'OUTDOOR_ENTERTAINING_AREA', 'SWIMMING_POOL', 'UNDERGROUND_PARKING', 'WALK_IN_ROBE', 'WATER_VIEWS']
181838184	SALES_RESIDENTIAL	Style and functionality	$999,000+	2023-08-09 14:32:02	2024-01-11 09:28:26	14 Limb Circuit	Moncrieff	ACT	2914	-35.1595883393765	149.120228973275	HOUSE	937424	Agent	Stone Gungahlin	Jess Doolan	5.0	2	2	5.0	388.0	[]
181838521	SALES_RESIDENTIAL	LOCATION, LIFESTYLE AND LIVEABILITY	Auction 03/02/24	2023-08-09 00:00:00	2024-01-12 16:10:29	59 Bluestone Gardens	Jerrabomberra	NSW	2619	-35.3812583	149.2019542	HOUSE	210176	Agent	LJ Hooker Woden/Weston	Jane Macken	3.0	2	2		434.0	[]
181838649	SALES_RESIDENTIAL	Modern townhouse with large courtyard	$829,000	2023-10-05 15:42:05	2024-01-18 09:51:33	10/4 Burgoyne Street	Bonython	ACT	2905	-35.4272223040727	149.074250571689	TOWNHOUSE	854944	Agent	Blackshaw Woden	Robert Peaker	4.0	2	2	6.0		[]
181840234	SALES_RESIDENTIAL	Bring Your Builder and Watch Your Dream Home Come to Life!	Auction 10/04/24	2023-08-10 00:00:00	2024-03-12 15:12:27	11 Hawker Street	Torrens	ACT	2607	-35.3707977382818	149.083392299207	HOUSE	971733	Agent	Ward Estate Agents	Greg Ward	4.0	2	2	0.0	836.0	[]
181840566	SALES_RESIDENTIAL	A place to call home!!! Be quick!!!	$999,000+	2023-08-10 00:00:00	2024-01-15 13:42:03	1/26 Longford Street	Lyons	ACT	2606	-35.33630607	149.07335322	HOUSE	10905	Agent	Edge Real Estate	Steve Thomas	3.0	1	2	2.5		[]
181841247	SALES_RESIDENTIAL	Inner-City 'Mayfair' Lifestyle Abode	$750,000+	2023-08-10 12:42:04	2024-01-25 10:41:24	60/45 West Row	City	ACT	2601	-35.2786615564689	149.127497554065	APARTMENT	572389	Agent	Belle Property Canberra	Andrew White	2.0	3	2	5.5		['ALLOCATED_CAR_SPACE']
181843916	SALES_RESIDENTIAL	Superb one bedroom plus large separate study apartment	offers over $510,000 - one bedroom plus study	2023-08-11 00:00:00	2024-02-02 09:26:42	79/116 Easty Street	Phillip	ACT	2606	-35.3467172047762	149.090254787924	UNIT	210176	Agent	LJ Hooker Woden/Weston	Emma Robertson	2.0	1	1	6.0		['AIR_CONDITIONING', 'AIR_CONDITIONING_OTHER', 'ALLOCATED_CAR_SPACE']
181853527	SALES_RESIDENTIAL	The Establishment - Type A.2Q from $536,900	$556,900	2024-03-07 22:32:29		The Establishment - Type A.2Q - 911/90 Swain Street	Gungahlin	ACT	2912	-35.1804890162095	149.133052705862	APARTMENT	220765	Agent	GEOCON	Dimitri Georgalis - One Agency Brindabella	2.0	2	1	5.0		['AIR_CONDITIONING_REVERSE_CYCLE', 'DISHWASHER']
181856829	SALES_RESIDENTIAL	Stylish & Renovated Yarralumla Charm	Auction 09/04/24	2023-08-17 09:00:23	2024-03-14 13:51:39	5/28 Black Street	Yarralumla	ACT	2600	-35.303270223	149.1036781925	TOWNHOUSE	572389	Agent	Belle Property Canberra	Dan McAlpine	3.0	2	2	3.5		[]
181857022	SALES_RESIDENTIAL	A statement of opulence and refinement!	By Negotiation	2023-08-17 00:00:00	2024-02-15 15:57:48	10 Mirri Close	Throsby	ACT	2914	-35.1928297735894	149.167285536612	HOUSE	872303	Agent	Reliance Residential	Shelly Gupta	4.0	4	2	6.0	485.0	[]
181857096	SALES_RESIDENTIAL	Mio - 2 Bed, 2 Living Areas, 2.5 Bath, 2 Car Spaces	$689,900	2023-08-17 17:29:46	2024-06-13 00:49:10	MIO - 2 Bed, 2 Living Areas, 2 Bath, 2 Car Space	Googong	NSW	2620	-35.4217959518788	149.221718150752	TOWNHOUSE	3250	Agent	LJ Hooker Project Marketing	Keenan Veraar	2.0	2	2		20976.0	['ALLOCATED_CAR_SPACE']
181857108	SALES_RESIDENTIAL	Mio - 4 Bed + Study, 2 Living Areas, 2.5 Bath, Double Garage	$899,900	2023-08-17 17:30:11	2024-06-13 00:49:10	MIO - 4 Bed + Study, 2 Bath, Double Garage	Googong	NSW	2620	-35.4217959518788	149.221718150752	OTHER	3250	Agent	LJ Hooker Project Marketing	Keenan Veraar	4.0	2	2		20976.0	[]
181857116	SALES_RESIDENTIAL	Mio - 2 Bed, 2 Living Areas, 2.5 Bath, Triple Garage	$729,900	2023-08-17 17:29:53	2024-03-15 13:06:44	MIO - 2 Bed, 2 Living Areas, 2 Bath, Triple Garage	Googong	NSW	2620	-35.4217959518788	149.221718150752	TOWNHOUSE	3250	Agent	LJ Hooker Project Marketing	Keenan Veraar	2.0	2	3			[]
181857117	SALES_RESIDENTIAL	MIO - 3 Bed, 2 Living Area, 2.5 Bath, Triple Garage	$809,900	2023-08-17 17:30:05	2024-06-13 00:49:10	MIO - 3 Bed, 2 Bath, Triple Garage	Googong	NSW	2620	-35.4217959518788	149.221718150752	OTHER	3250	Agent	LJ Hooker Project Marketing	Keenan Veraar	3.0	2	3		20976.0	[]
181857321	SALES_RESIDENTIAL	Exceptional living, elegant lifestyle.	$589,000+	2023-08-17 11:12:03	2024-06-17 08:55:54	11/44 Constitution Avenue	Parkes	ACT	2600	-35.2883785130977	149.137938029573	APARTMENT	700494	Agent	Hive Property	Matt Shipard	1.0	1	1	6.0		['ALLOCATED_CAR_SPACE']
181860390	SALES_RESIDENTIAL	Style Living in a Great Central Location	$420,000+	2023-08-18 11:01:27	2024-01-17 11:38:04	157/1 Mouat Street	Lyneham	ACT	2602	-35.2486096947793	149.13272095806	UNIT	1517	Agent	Blackshaw Tuggeranong	Mehri Roses	1.0	1	1	5.0		[]
181861096	SALES_RESIDENTIAL	Quiet Retreat With The City At Your Feet	$589,000	2024-02-02 14:03:54		226/81 Cooyong Street	Reid	ACT	2612	-35.2802131258309	149.136662216676	UNIT	139235	Agent	Archer Canberra	Andrew Early	2.0	2	2	5.0		[]
181862557	SALES_RESIDENTIAL	Waterfront Luxury Living in Kingston	$629,000+	2023-08-18 00:00:00	2024-01-17 18:20:17	55/11 Trevillian Quay	Kingston	ACT	2604	-35.3106675562305	149.146434290144	APARTMENT	1049153	Agent	VC PROPERTY ACT	Varun Dhand	2.0	1	1	6.0		[]
181870861	SALES_RESIDENTIAL	An ideal location with beautiful views. Be quick!	$620,000+	2023-08-23 10:12:03	2024-02-07 11:33:41	306/253 Northbourne Avenue	Lyneham	ACT	2602	-35.2573455116527	149.132115870341	APARTMENT	10905	Agent	Edge Real Estate	Steve Thomas	2.0	2	2	6.0		['ALLOCATED_CAR_SPACE']
181870979	SALES_RESIDENTIAL	Modern and high quality living in an ideal location!	$699,000+	2023-08-23 10:32:30	2024-04-03 11:13:33	602/32 Mort Street	Braddon	ACT	2612	-35.2740594746166	149.131748852677	APARTMENT	937424	Agent	Stone Gungahlin	Jess Smith	2.0	2	2	6.0		['ALLOCATED_CAR_SPACE']
181870982	SALES_RESIDENTIAL	Amazing Block of Land at Central Location - Ready to Build on NOW !	$665,000+	2023-08-23 11:02:08	2024-01-15 11:40:23	106 Hazel Hawke Avenue	Whitlam	ACT	2611	-35.2725513419743	149.038049072705	LAND	514317	Agent	Impact Properties Canberra	Mandeep Singh		0	0		450.0	[]
181871482	SALES_RESIDENTIAL	Incredible Family Home!	$1,149,000+	2023-08-23 00:00:00	2024-07-02 11:54:45	1 Spooner Street	Taylor	ACT	2913	-35.1529178265489	149.10026281273	HOUSE	95	Agent	LJ Hooker Kaleen	Lukas Cole	4.0	2	2	6.0	437.0	[]
181872170	SALES_RESIDENTIAL	Homely and scenic charms with lush garden vibes	$1,225,000 - $1,275,000	2023-08-23 00:00:00	2024-01-11 09:05:44	2 Copperfield Place	Jerrabomberra	NSW	2619	-35.3933393710092	149.206406914333	HOUSE	12	Agent	Blackshaw Manuka	Vince Qi	4.0	2	2		845.0	['ALLOCATED_CAR_SPACE']
181872751	SALES_RESIDENTIAL	Spectacular 156+18sqm High-Rise Living Penthouse	$1,523,900	2023-11-09 16:28:32	2024-02-07 00:15:00	WOVA - Spectacular 156+18sqm High-Rise Living Penthouse	Phillip	ACT	2606	-35.3409378	149.0841193	APARTMENT	988443	Agent	AM Property Agency	Adam Morgan	3.0	2	2	5.0		['AIR_CONDITIONING_REVERSE_CYCLE', 'DISHWASHER']
181872763	SALES_RESIDENTIAL	Settle February-March 2024	$494,000	2023-08-28 12:01:15	2024-02-24 00:15:00	New Land - Lot 2334	Googong	NSW	2620	-35.44469973	149.22763541	LAND	263325	Agent	Googong Township Realty	Contact Us		0	0			[]
181872806	SALES_RESIDENTIAL	Step into the Gateway of your new home!	$799,000 +	2023-08-23 16:02:07	2024-05-06 14:57:07	34/1 Nevertire Street	Lawson	ACT	2617	-35.2332438144161	149.091361443145	TOWNHOUSE	378306	Agent	Manage Me Property Group	Amy Taylor	4.0	2	2	6.0	9231.0	['AIR_CONDITIONING_SPLIT_SYSTEM', 'BROADBAND', 'DISHWASHER', 'HEATING_OTHER', 'OUTDOOR_ENTERTAINING_AREA']
181874480	SALES_RESIDENTIAL	DA APPROVED AND READY TO BUILD!	$839,000+	2023-08-24 10:12:05	2024-05-02 12:08:55	3 Meiklejohn Place	Flynn	ACT	2615	-35.2096333372723	149.042211839718	LAND	915643	Agent	VERV Property	Sienna Lacey	0.0	0	0		803.0	[]
181875711	SALES_RESIDENTIAL	Luxurious 2 Bedroom, 2 Bathroom Unit with Stunning Views in Gribble Street - Experience Modern Living at Its Finest!	$535000+	2023-08-24 14:10:40	2024-04-03 11:47:41	401/6 Gribble Street	Gungahlin	ACT	2912	-35.1821339235982	149.131090545529	APARTMENT	992743	Agent	Mainstream Real Estate	Ankit Karwar	2.0	2	2	6.0		[]
181875923	SALES_RESIDENTIAL	One bedroom plus plus plus	$385,000	2023-08-24 14:42:05	2024-02-13 15:49:00	G10/34 Oakden Street	Greenway	ACT	2900	-35.4224738137799	149.073622573032	APARTMENT	917333	Agent	The Property Collective	Jeremy Grobben	1.0	1	1	6.0		['AIR_CONDITIONING', 'AIR_CONDITIONING_OTHER', 'ALLOCATED_CAR_SPACE']
181876178	SALES_RESIDENTIAL	The Establishment - Type B.1C	$494,900	2024-03-19 19:03:26		The Establishment - Type B.1C - 424/87 Gozzard Street	Gungahlin	ACT	2912	-35.1804890162095	149.133052705862	APARTMENT	220765	Agent	GEOCON	Dimitri Georgalis - One Agency Brindabella	1.0	1	0	5.6		['AIR_CONDITIONING_REVERSE_CYCLE', 'DISHWASHER', 'NEW_CONSTRUCTION', 'OUTDOOR_ENTERTAINING_AREA', 'SWIMMING_POOL']
181879006	SALES_RESIDENTIAL	Freshly Presented and Well-Located Family Home	Auction 17/04/24	2023-08-25 14:12:06	2024-03-21 16:41:17	72 Derrima Road	Queanbeyan	NSW	2620	-35.3432752	149.223409	HOUSE	971733	Agent	Ward Estate Agents	Greg Ward	4.0	2	1		663.6	[]
181881391	SALES_RESIDENTIAL	Close to amenities	$473,000	2023-08-28 14:22:21	2024-05-24 00:50:40	New Land - Lot 2310	Googong	NSW	2620	-35.44469973	149.22763541	LAND	263325	Agent	Googong Township Realty	Contact Us		0	0			[]
181889335	SALES_RESIDENTIAL	Solid 2-bedroom Investment in high Growth Area	$479,000+	2023-08-31 08:22:01	2024-02-20 13:34:40	315/335 Anketell Street	Greenway	ACT	2900	-35.4224738137799	149.073622573032	APARTMENT	917333	Agent	The Property Collective	Jeremy Grobben	2.0	2	1	6.0		['AIR_CONDITIONING', 'AIR_CONDITIONING_OTHER']
181889568	SALES_RESIDENTIAL	High End Inner-North Entertainer	$3,490,000+	2023-08-31 09:50:56	2024-03-15 14:43:02	26 Westgarth Street	O'Connor	ACT	2602	-35.2636007595	149.1175333565	HOUSE	928774	Agent	Bastion Property Group	Theo Koutsikamanis	4.0	2	2	6.0	808.0	[]
181890058	SALES_RESIDENTIAL	Brand new, bright and spacious 2 bedroom apartment.	$470,000+	2023-08-30 16:33:02	2024-03-14 07:58:52	602/90 Swain Street	Gungahlin	ACT	2912	-35.18072232	149.13312591	APARTMENT	937424	Agent	Stone Gungahlin	Sam Dyne	2.0	1	1	6.0		[]
181890872	SALES_RESIDENTIAL	North Facing, City Living	$475,000	2023-08-31 07:22:14	2024-01-04 14:14:29	Level 6/628/81 Cooyong Street	Reid	ACT	2612	-35.2796237	149.136225	APARTMENT	988443	Agent	AM Property Agency	Luke Lindley	1.0	1	1	6.0		['AIR_CONDITIONING_REVERSE_CYCLE', 'ALLOCATED_CAR_SPACE', 'DISHWASHER', 'OUTDOOR_ENTERTAINING_AREA']
181890885	SALES_RESIDENTIAL	Energy Efficient Stunner Home and Income $300 - $350pw or Airbnb Opportunity for Pod Home	Offers Over $950,000	2023-08-31 10:32:01	2024-01-18 14:21:52	30 Bainbridge Close	Chisholm	ACT	2905	-35.4202850658897	149.132049428409	HOUSE	968313	Agent	The Agency Canberra	Michael Hugg	4.0	2	3	4.0	1141.0	['AIR_CONDITIONING_SPLIT_SYSTEM', 'ALLOCATED_CAR_SPACE', 'OUTDOOR_ENTERTAINING_AREA', 'RUMPUS_ROOM']
181891154	SALES_RESIDENTIAL	Calm, Serene and Beautiful!!	$1,198,888+	2023-08-31 12:02:03	2024-02-14 12:19:41	57 George Seddon Crescent	Taylor	ACT	2913	-35.1402778356048	149.107040050295	HOUSE	939233	Agent	Confidence Real Estate	Pawandeep Singh Chadha	5.0	3	2	6.0		[]
181891509	SALES_RESIDENTIAL	Neat and complete	$538,000	2023-08-31 15:55:06	2024-05-27 00:19:30	De Burgh at Northbourne Village - Executive 1 Bed	Lyneham	ACT	2602	-35.2558248	149.1319679	APARTMENT	510357	Agent	JWLand Development	Natasha Johnson	1.0	1	1	6.0		[]
181891522	SALES_RESIDENTIAL	R3 | Unparalleled Inner-South Living	$1,299,900	2023-09-06 09:18:30	2024-06-02 00:28:10	Renaissance - 148/19 Captain Cook Crescent Griffith	Griffith	ACT	2603	-35.3210540400516	149.135458562388	APARTMENT	866913	Agent	Morris Property Group	Gary Woo	3.0	2	2	6.5		['ALLOCATED_CAR_SPACE']
181891540	SALES_RESIDENTIAL	Ground floor 1 bed +study room	$550,000	2023-08-31 21:41:23	2024-05-27 00:19:30	The Brooke - Ground floor 1 bed +study room	Bruce	ACT	2617	-35.2401371602493	149.102400084041	APARTMENT	932093	Agent	AVANTUS	Nick Huang	1.0	1	1	6.0		['AIR_CONDITIONING_REVERSE_CYCLE', 'AIR_CONDITIONING_SPLIT_SYSTEM', 'ALLOCATED_CAR_SPACE', 'BROADBAND', 'DISHWASHER', 'DOUBLE_GLAZED_WINDOWS', 'ENCLOSED_BACKYARD', 'FAMILY_ROOM', 'INTERCOM', 'NETWORK_CABLING', 'NEW_CONSTRUCTION', 'OFF_STREET_PARKING', 'OUTDOOR_ENTERTAINING_AREA', 'PLANS_APPROVED', 'SHOWER', 'SLAB_CONSTRUCTION', 'STUDY', 'STUDY_NOOK', 'UNDERGROUND_PARKING', 'WASH_CLOSET']
181891543	SALES_RESIDENTIAL	The Establishment - Type A.2A from $595,000	$595,000+	2023-09-01 13:27:36	2024-05-28 00:42:20	The Establishment - Type A.2A - 1204/90 Swain Street	Gungahlin	ACT	2912	-35.1804890162095	149.133052705862	APARTMENT	220765	Agent	GEOCON	Dimitri Georgalis - One Agency Brindabella	2.0	2	2	7.2		['NEW_CONSTRUCTION', 'SWIMMING_POOL', 'WATER_VIEWS']
181892013	SALES_RESIDENTIAL	New Display Now Open	$1,049,900	2023-09-06 09:09:14	2024-03-04 00:15:00	Renaissance - R3 | Split Bedroom, North-West Aspect	Griffith	ACT	2603	-35.3210540400516	149.135458562388	APARTMENT	866913	Agent	Morris Property Group	Michael Morris	2.0	2	2	6.5		['ALLOCATED_CAR_SPACE']
181892351	SALES_RESIDENTIAL	306/Brooke, 2 bed 2 bath 2 car	$650,000	2023-08-31 22:00:53	2024-05-27 00:19:30	The Brooke - 306/Brooke, 2 bed 2 bath 2 car	Bruce	ACT	2617	-35.2401371602493	149.102400084041	OTHER	932093	Agent	AVANTUS	Nick Huang	2.0	2	2	6.0	3161.0	['AIR_CONDITIONING_REVERSE_CYCLE', 'AIR_CONDITIONING_SPLIT_SYSTEM', 'ALLOCATED_CAR_SPACE', 'BROADBAND', 'DISHWASHER', 'DOUBLE_GLAZED_WINDOWS', 'ELECTRIC_HEATING', 'HOPPER', 'INTERCOM', 'NETWORK_CABLING', 'NEW_CONSTRUCTION', 'OFF_STREET_PARKING', 'OUTDOOR_ENTERTAINING_AREA', 'PLANS_APPROVED', 'SHOWER', 'SLAB_CONSTRUCTION', 'UNDERGROUND_PARKING', 'WASH_CLOSET']
181892355	SALES_RESIDENTIAL	Calypso | Top Floor Penthouse with Uninterrupted Mountain View	$775,000	2023-09-03 12:47:22	2024-03-01 00:15:00	Calypso - Calypso | Top Floor Penthouse with Uninterrupted Mountain View	Dickson	ACT	2602	-35.255562762125	149.133523567629	APARTMENT	2539	Developer	Art Group	Rita Feng	2.0	2	1	6.5		['ALLOCATED_CAR_SPACE']
181894414	SALES_RESIDENTIAL	Be the first to call this home	$519,000+	2023-09-01 09:12:02	2024-05-14 10:10:10	1002/90 Swain Street	Gungahlin	ACT	2912	-35.18048494	149.13329539	APARTMENT	876743	Agent	Canberry Properties	Celiya Young	2.0	1	2	6.0		['BROADBAND', 'DISHWASHER', 'GYM', 'SPA_OUTDOOR', 'SWIMMING_POOL']
181894567	SALES_RESIDENTIAL	Your Dream Home is Waiting to Welcome You!	$1,175,000 - $1,195,000	2023-08-31 21:22:00	2024-02-02 08:11:33	4 Hollitt Street	Googong	NSW	2620	-35.4317339035641	149.226010706313	HOUSE	285646	Agent	White Rhino Property Googong-Queanbeyan-Jerrabomberra	Gavin Van Zyl	4.0	2	2		450.0	['AIR_CONDITIONING', 'AIR_CONDITIONING_OTHER', 'ALARM', 'ALLOCATED_CAR_SPACE']
181894670	SALES_RESIDENTIAL	Charming family home with conservatory, pool and lush gardens	Auction 04/05/24	2023-09-01 00:00:00	2024-04-11 12:03:07	1 Reliance Street	Red Hill	ACT	2603	-35.3402122464533	149.123149113641	HOUSE	12	Agent	Blackshaw Manuka	Mario Sanfrancesco	4.0	3	3	1.5		['ALLOCATED_CAR_SPACE']
181898130	SALES_RESIDENTIAL	Campbell Convenience & Connectivity	$499,000+	2023-09-04 10:52:03	2024-02-22 15:55:19	47/81 Constitution Avenue	Campbell	ACT	2612	-35.291913414662	149.146393625142	APARTMENT	572389	Agent	Belle Property Canberra	Louise Harget	1.0	1	1	6.0		['ALLOCATED_CAR_SPACE']
181898200	SALES_RESIDENTIAL	A home adjacent to natural park	Auction 10/02/24	2023-09-04 00:00:00	2024-01-18 11:31:50	24 Gwen Meredith Loop	Franklin	ACT	2913	-35.1994262835	149.1395724175	HOUSE	12	Agent	Blackshaw Manuka	Vince Qi	3.0	1	1	4.0	240.0	['SEPARATE_TOILET']
181898201	SALES_RESIDENTIAL	New Display Now Open	$1,499,900	2023-09-06 09:14:00	2024-03-04 00:15:00	Renaissance - R3 | Functional 3-bedroom, 2-bathroom	Griffith	ACT	2603	-35.3210540400516	149.135458562388	APARTMENT	866913	Agent	Morris Property Group	Michael Morris	3.0	2	3	6.5		['ALLOCATED_CAR_SPACE']
181898670	SALES_RESIDENTIAL	1 Bedroom Apartment - Tuggeranong CBD	$347,905	2023-11-13 14:32:52	2024-02-11 00:15:00	VUE Residences - 1 Bedroom Apartment VUE 95	Greenway	ACT	2900	-35.4141735785691	149.065909306814	OTHER	220765	Agent	GEOCON	GEOCON Canberra	1.0	1	1	5.0		['ALLOCATED_CAR_SPACE', 'BODY_CORPORATE', 'DISHWASHER', 'FULLY_FURNISHED']
181901555	SALES_RESIDENTIAL	Enviable lifestyle awaits!	$575,000+	2023-09-05 00:00:00	2024-05-14 10:01:51	1105/90 Swain Street	Gungahlin	ACT	2912	-35.18072232	149.13312591	APARTMENT	876743	Agent	Canberry Properties	Celiya Young	2.0	2	2	6.0		['AIR_CONDITIONING', 'AIR_CONDITIONING_OTHER', 'BROADBAND', 'GYM', 'SPA_OUTDOOR', 'SWIMMING_POOL']
181904246	SALES_RESIDENTIAL	VUE - 2 Bedroom 1 Bathroom in Tuggeranong CBD	$530,000+	2023-11-13 14:31:40	2024-05-11 00:47:00	VUE Residences - Fully Furnished 2 Bed - 135/150 Anketell Street	Greenway	ACT	2900	-35.4141735785691	149.065909306814	APARTMENT	220765	Agent	GEOCON	GEOCON Canberra	2.0	1	2	5.0		['ALLOCATED_CAR_SPACE', 'FULLY_FURNISHED']
181905654	SALES_RESIDENTIAL	Great Location & Convenient!!	Auction 13/04/24	2023-09-06 14:32:02	2024-03-13 14:29:28	119B Harrington Circuit	Kambah	ACT	2902	-35.3772123	149.0608887	HOUSE	939233	Agent	Confidence Real Estate	Anish Sebastian	4.0	3	2	7.0		[]
181907309	SALES_RESIDENTIAL	Amazing Apartment with Views !	By Negotiation	2023-09-06 17:10:43	2024-02-21 11:31:51	103/43 Arthur Blakeley Way	Coombs	ACT	2611	-35.3162302711584	149.036082530035	APARTMENT	514317	Agent	Impact Properties Canberra	Mandeep Singh	2.0	1	1	6.0		['AIR_CONDITIONING', 'AIR_CONDITIONING_OTHER', 'BROADBAND', 'DISHWASHER', 'OUTDOOR_ENTERTAINING_AREA']
181908709	SALES_RESIDENTIAL	Lot A45 - LAND NEAR COMPLETION	$588,900	2023-09-08 14:51:02	2024-03-06 00:15:00	South Jerrabomberra - Lot A45	Tralee	NSW	2620	-35.4016883455149	149.167727661133	LAND	593	Agent	The Village Building Co.	Vlada Piven		0	0		479.0	[]
181911929	SALES_RESIDENTIAL	New Price- Secure tenant 6.3% rental return	$370,000	2023-09-08 00:00:00	2024-04-23 13:07:19	715/15 Bowes Street	Phillip	ACT	2606	-35.344099410099	149.086928407958	UNIT	1063529	Agent	Sarah Cooper - Freelance Agent	Sarah Cooper	1.0	1	0	6.0		['AIR_CONDITIONING_SPLIT_SYSTEM', 'BROADBAND', 'DISHWASHER', 'GYM', 'HEATING_OTHER', 'SWIMMING_POOL']
181919281	SALES_RESIDENTIAL	For the largest of families, fully renovated family home. Be quick!	Auction 24/02/24	2023-09-14 21:43:00	2024-02-08 10:48:11	27 Barritt Street	Kambah	ACT	2902	-35.3791665032384	149.05093570566	HOUSE	10905	Agent	Edge Real Estate	Steve Thomas	5.0	3	2	1.0		['AIR_CONDITIONING_REVERSE_CYCLE', 'AIR_CONDITIONING_SPLIT_SYSTEM', 'DINING_ROOM', 'DISHWASHER', 'FAMILY_ROOM', 'FORMAL_LOUNGE_ROOM', 'RUMPUS_ROOM', 'WALK_IN_ROBE']
181922058	SALES_RESIDENTIAL	Embrace Courtyard Living: A Slice of Paradise in Greenwich	Offers over $719,000	2023-09-13 09:42:12	2024-01-11 09:53:39	G04/6 Provan Street	Campbell	ACT	2612	-35.2887831	149.1439552	UNIT	709273	Agent	Carter and Co Agents	James Carter And Nik Brozinic	2.0	2	2	6.0		[]
181922971	SALES_RESIDENTIAL	Split Level Living at The Avenue	Offers Over $629,000	2023-09-13 11:52:08	2024-01-10 16:00:59	77/77 Northbourne Avenue	Turner	ACT	2612	-35.2752056290292	149.128948139363	APARTMENT	709273	Agent	Carter and Co Agents	James Carter And Nik Brozinic	2.0	2	2	6.0		['ALLOCATED_CAR_SPACE']
181924808	SALES_RESIDENTIAL	The Establishment - Type A.2C	$571,900	2024-03-20 15:21:47		The Establishment - Type A.2C - 215/90 Swain Street	Gungahlin	ACT	2912	-35.1804890162095	149.133052705862	APARTMENT	220765	Agent	GEOCON	Dimitri Georgalis - One Agency Brindabella	2.0	2	1	6.3		['AIR_CONDITIONING_REVERSE_CYCLE', 'NEW_CONSTRUCTION', 'OUTDOOR_ENTERTAINING_AREA', 'SPA_OUTDOOR', 'SWIMMING_POOL', 'UNDERGROUND_PARKING']
181925238	SALES_RESIDENTIAL	Zhuri Terrace Homes - Free-standing separate title Terrace Homes	$749,900	2023-09-18 07:40:41	2024-03-18 13:08:48	ZHURI TERRACES - 27 Madenhair Road	Tralee	NSW	2620	-35.4011849059406	149.167640693347	HOUSE_AND_LAND_PACKAGE	567569	Agent	Aird Property Group	Daniel	4.0	2	2		226.0	[]
181925824	SALES_RESIDENTIAL	Captivating comfort and convenience	$1,699,000 +	2023-09-14 06:23:28	2024-01-25 09:14:15	15B Reynolds Street	Curtin	ACT	2605	-35.3227952	149.0817227	HOUSE	682863	Agent	Hayman Partners	Brett Hayman	4.0	2	2	5.5		[]
181926280	SALES_RESIDENTIAL	RZ2 Block in a Superb Location. Endless Possibilities!	Offers Over $1,299,000	2023-09-14 11:32:33	2024-01-22 09:00:57	18 Bindaga Place	Aranda	ACT	2614	-35.2561520927136	149.074977694759	HOUSE	917333	Agent	The Property Collective	Obi Shadmaan	3.0	2	1	0.0	740.0	[]
181926429	SALES_RESIDENTIAL	Prime Living: Downer's Hidden Gem	Offers Over $1,029,000	2023-09-14 11:42:06	2024-01-08 09:25:39	145 Antill Street	Downer	ACT	2602	-35.24794119529	149.147735827668	HOUSE	917333	Agent	The Property Collective	Obi Shadmaan	3.0	1	0	1.0	752.0	[]
181926577	SALES_RESIDENTIAL	Panoramic views and exquisite amenities in grand entertainer	$3,800,000+	2023-09-14 11:52:41	2024-01-18 11:03:57	19 Timbarra Crescent	O'Malley	ACT	2606	-35.3473729118671	149.110685038993	HOUSE	12	Agent	Blackshaw Manuka	Mario Sanfrancesco	5.0	3	5	4.0	1907.0	[]
181926580	SALES_RESIDENTIAL	Easy living, great location!	Auction 02/03/24	2023-09-14 12:12:03	2024-02-08 08:57:38	1/2 Edmunds Place	Spence	ACT	2615	-35.2006805227293	149.066329615917	HOUSE	682863	Agent	Hayman Partners	Anthony McCormack	3.0	1	3	1.5	520.0	[]
181929095	SALES_RESIDENTIAL	Enjoy the Realm lifestyle	$870,000	2023-09-15 12:00:21	2024-05-08 13:15:10	10/7 Sydney Ave	Barton	ACT	2600	-35.312482616445	149.132625258372	APARTMENT	686333	Agent	Francis Properties	Jeremy Francis	2.0	2	2	5.0		['AIR_CONDITIONING', 'AIR_CONDITIONING_OTHER']
181937484	SALES_RESIDENTIAL	Outstanding land opportunity, elevated North facing block!	$649,900	2023-09-19 00:00:00	2024-02-21 14:28:03	24 Pat Lovell Crescent	Whitlam	ACT	2611	-35.2824067287538	149.040753484673	LAND	1004153	Agent	Altair Property	Andrew Potts		0	0			[]
181939471	SALES_RESIDENTIAL	Refreshed, Rejuvenated and Ready to Occupy!	Auction 27/01/24	2023-09-20 09:32:00	2024-01-11 16:47:32	7 Bibby Place	Florey	ACT	2615	-35.2258490310848	149.058037447436	HOUSE	93	Agent	LJ Hooker Belconnen	Sharon Schnyder	4.0	2	2	2.0	1140.0	['HEATING_CENTRAL', 'OUTDOOR_ENTERTAINING_AREA']
181939694	SALES_RESIDENTIAL	THE STORY.... ONE TITLE - DUAL INCOME!	By Negotiation	2023-09-20 11:52:05	2024-01-18 09:22:46	44 Marie Pitt Street	Franklin	ACT	2913	-35.1949681580434	149.144788086112	HOUSE	931763	Agent	Jonny Warren Properties	Jonny Warren	4.0	3	2	2.0	490.0	['AIR_CONDITIONING', 'AIR_CONDITIONING_OTHER', 'ALLOCATED_CAR_SPACE', 'DISHWASHER']
181939791	SALES_RESIDENTIAL	Luxurious 2 Bedroom Lakeside Apartment	$775,000+	2023-09-22 11:20:53	2024-06-18 00:28:00	Ethos - 2 Bedroom Apartment	Belconnen	ACT	2617	-35.2364782960934	149.065262800675	APARTMENT	522287	Agent	Colliers Canberra  Residential	Sisi Chen	2.0	2	1	6.0		['AIR_CONDITIONING_REVERSE_CYCLE', 'ALLOCATED_CAR_SPACE', 'DISHWASHER', 'INTERCOM', 'NEW_CONSTRUCTION', 'PLANS_APPROVED', 'STUDY_NOOK', 'WATERFRONT']
181939792	SALES_RESIDENTIAL	Luxurious 2 Bedroom Lakeside Apartment	$885,000+	2023-09-22 11:32:31	2024-06-18 00:28:00	Ethos - 2 Bedroom Apartment	Belconnen	ACT	2617	-35.2364782960934	149.065262800675	APARTMENT	522287	Agent	Colliers Canberra  Residential	Sisi Chen	2.0	2	1	6.0		['AIR_CONDITIONING_REVERSE_CYCLE', 'ALLOCATED_CAR_SPACE', 'DISHWASHER', 'INTERCOM', 'NEW_CONSTRUCTION', 'PLANS_APPROVED', 'STUDY_NOOK', 'WATERFRONT']
181939796	SALES_RESIDENTIAL	Ready to Build Now - Whitlam Block 15 Section 46	$682,500	2024-02-22 10:12:59		Whitlam - Feels like home - Block 15 Section 46 - 449m2	Whitlam	ACT	2611	-35.27704162	149.03593218	LAND	699043	Agent	Suburban Land Agency	SLA Sales Team		0	0			[]
181939797	SALES_RESIDENTIAL	Luxurious 2 Bedroom Lakeside Apartment	$805,000+	2023-09-22 11:32:49	2024-06-18 00:28:00	Ethos - 2 Bedroom Apartment	Belconnen	ACT	2617	-35.2364782960934	149.065262800675	APARTMENT	522287	Agent	Colliers Canberra  Residential	Sisi Chen	2.0	2	1	6.0		['AIR_CONDITIONING_REVERSE_CYCLE', 'ALLOCATED_CAR_SPACE', 'DISHWASHER', 'INTERCOM', 'NEW_CONSTRUCTION', 'PLANS_APPROVED', 'STUDY_NOOK', 'WALK_IN_ROBE', 'WATERFRONT']
181939907	SALES_RESIDENTIAL	Luxurious 2 Bedroom Lakeside Apartment	$920,000+	2023-09-22 11:32:42	2024-06-18 00:28:00	Ethos - 2 Bedroom Apartment	Belconnen	ACT	2617	-35.2364782960934	149.065262800675	APARTMENT	522287	Agent	Colliers Canberra  Residential	Sisi Chen	2.0	2	2	6.0		['AIR_CONDITIONING_REVERSE_CYCLE', 'ALLOCATED_CAR_SPACE', 'DISHWASHER', 'INTERCOM', 'NEW_CONSTRUCTION', 'PLANS_APPROVED', 'WATERFRONT']
181939908	SALES_RESIDENTIAL	Luxurious 3 Bedroom Lakeside Penthouse	By Negotiation	2023-09-22 11:32:54	2024-06-18 00:28:01	Ethos - 3 Bedroom Penthouse	Belconnen	ACT	2617	-35.2364782960934	149.065262800675	APARTMENT	522287	Agent	Colliers Canberra  Residential	Sisi Chen	3.0	3	2	6.0		['AIR_CONDITIONING_REVERSE_CYCLE', 'ALLOCATED_CAR_SPACE', 'DISHWASHER', 'INTERCOM', 'NEW_CONSTRUCTION', 'POWDER_ROOM', 'WATERFRONT']
181940217	SALES_RESIDENTIAL	Luxurious 4 Bedroom Lakeside Penthouse	$2,850,000+	2023-09-22 11:32:37	2024-03-20 00:15:00	Ethos - 4 Bedroom Penthouse	Belconnen	ACT	2617	-35.2364782960934	149.065262800675	APARTMENT	522287	Agent	Colliers Canberra  Residential	Sisi Chen	4.0	4	3	6.0		['AIR_CONDITIONING_REVERSE_CYCLE', 'ALLOCATED_CAR_SPACE', 'DISHWASHER', 'INTERCOM', 'NEW_CONSTRUCTION', 'PLANS_APPROVED', 'POWDER_ROOM', 'WATERFRONT']
181940219	SALES_RESIDENTIAL	$0 Stamp Duty payable for Woden Green 1 bedroom apartments*	$499,900+	2023-09-21 19:34:54	2024-03-19 00:15:00	Woden Green - Tower 2 - New Release - One Bedroom	Phillip	ACT	2606	-35.34698705	149.09091846	APARTMENT	869644	Agent	Hindmarsh	Ben Wilson - The Property Collective	1.0	1	1	6.0		['ALLOCATED_CAR_SPACE']
181943063	SALES_RESIDENTIAL	Welcome Home at 22 Gardiner St Googong!	$959,000 to $999,000	2023-09-21 00:00:00	2024-04-02 14:32:58	22 Gardiner Street	Googong	NSW	2620	-35.4299546121765	149.237252755707	HOUSE	888993	Agent	New Door Properties	Yash Sethi	4.0	2	2		420.0	[]
181943304	SALES_RESIDENTIAL	Modern. Convenience. Stunning Views	$519,000+	2023-09-21 00:00:00	2024-03-25 13:12:11	718/335 Anketell Street	Greenway	ACT	2900	-35.4224738137799	149.073622573032	APARTMENT	84655	Agent	MARQ Property	Sam Taylor	2.0	2	2	5.0		['ALLOCATED_CAR_SPACE']
181943458	SALES_RESIDENTIAL	Living made simple.	$899,000+	2023-09-21 11:00:44	2024-01-11 08:24:46	139 Badimara Street	Fisher	ACT	2611	-35.3588962399701	149.061300579775	HOUSE	700494	Agent	Hive Property	Matt Shipard	3.0	2	2	1.0	470.0	[]
181947592	SALES_RESIDENTIAL	Limited Release: Spacious One Bedroom Courtyard Apartment	$475,000	2023-09-28 09:50:16	2024-03-26 00:15:00	EKKO - 1 Bedroom Courtyard Apartment	Whitlam	ACT	2611	-35.2991954047437	149.022992984009	OTHER	80917	Agent	Ray White Canberra	Samuel Fitzsimmons	1.0	1	1	6.0		['ALLOCATED_CAR_SPACE']
181950282	SALES_RESIDENTIAL	A comfortable unit in a prime location	$599,000+	2023-09-25 00:00:00	2024-01-10 15:41:40	83/100 Henry Kendall Street	Franklin	ACT	2913	-35.1890563682938	149.149417133173	APARTMENT	937424	Agent	Stone Gungahlin	Sam Dyne	3.0	2	2	6.0		[]
181950356	SALES_RESIDENTIAL	Modern & Luxurious  Cosmopolitan Living at its Best !	By Negotiation	2023-09-25 00:00:00	2024-05-30 16:35:27	612/120 Eastern Valley Way	Belconnen	ACT	2617	-35.24042784	149.07354907	APARTMENT	514317	Agent	Impact Properties Canberra	Gurpreet Singh	1.0	1	1	6.0		['AIR_CONDITIONING', 'AIR_CONDITIONING_OTHER', 'BROADBAND', 'DISHWASHER', 'OUTDOOR_ENTERTAINING_AREA']
181950408	SALES_RESIDENTIAL	Ready to Build Now - Whitlam Whitlam Block 9 Section 93	$685,000	2024-02-22 10:13:40	2024-05-22 00:16:00	Whitlam - Feels like home - Block 9 Section 93 - 450m2	Whitlam	ACT	2611	-35.27704162	149.03593218	LAND	699043	Agent	Suburban Land Agency	SLA Sales Team		0	0			[]
181952970	SALES_RESIDENTIAL	Whitlam - Block 12 Section 93	$685,000	2024-02-22 10:19:34		Whitlam - Feels like home - Block 12 Section 93 - 450m2	Whitlam	ACT	2611	-35.27704162	149.03593218	LAND	699043	Agent	Suburban Land Agency	SLA Sales Team		0	0			[]
181953099	SALES_RESIDENTIAL	Whitlam Block 10 Section 92	$700,000	2024-02-22 10:12:53		Whitlam - Feels like home - Block 10 Section 92 - 493m2	Whitlam	ACT	2611	-35.27704162	149.03593218	LAND	699043	Agent	Suburban Land Agency	SLA Sales Team		0	0			[]
181957770	SALES_RESIDENTIAL	NEW AND IMPROVED	$659,000+	2023-09-27 15:34:31	2024-02-28 15:08:37	1 Deucem Smith Street	Bonner	ACT	2914	-35.1528485527432	149.141459453642	HOUSE	937424	Agent	Stone Gungahlin	Jess Doolan	3.0	1	1	6.0	240.0	[]
181959381	SALES_RESIDENTIAL	Fantastic townhouse in a great location!	$579,000-$599,000	2023-09-28 00:00:00	2024-01-25 16:37:22	1/4 Cassidy Street	Queanbeyan West	NSW	2620	-35.3607297755133	149.217591347674	TOWNHOUSE	965	Agent	Ian McNamee & Partners Queanbeyan/Jerrabomberra/Canberra	Michael Edwards	2.0	1	2		112.0	['DISHWASHER', 'RUMPUS_ROOM']
181959957	SALES_RESIDENTIAL	Two-Bedroom Townhouse Gem!	$620,000+	2023-09-28 09:42:03	2024-01-11 09:14:47	71/60 Kingsland Parade	Casey	ACT	2913	-35.1724327992887	149.096695108372	TOWNHOUSE	700494	Agent	Hive Property	Steve Langford	2.0	2	1	6.0		['ALLOCATED_CAR_SPACE']
181960036	SALES_RESIDENTIAL	New York loft in Manuka.	$529,000+	2023-09-28 10:03:00	2024-02-01 10:30:06	10/18 Captain Cook Crescent	Griffith	ACT	2603	-35.3210024988044	149.134123404104	APARTMENT	50	Agent	PURNELL	Nick Purnell	1.0	1	1	5.5		['DISHWASHER', 'INTERCOM']
181960135	SALES_RESIDENTIAL	Sprawling 1,402m2 block in Hawker	Auction 12/02/24	2023-09-28 12:00:31	2024-02-02 06:45:03	5 Elsey Street	Hawker	ACT	2614	-35.2482654203137	149.030277023242	LAND	1624	Agent	Blackshaw Gungahlin	Michael Braddon	0.0	0	0		1402.0	[]
181961147	SALES_RESIDENTIAL	Sunny North facing Apartment close to the City and the ANU. View BY APPOINTMENT	$440,000	2023-09-28 14:52:08	2024-01-15 15:31:07	201/86-88 Northbourne Avenue	Braddon	ACT	2612	-35.2738075145637	149.130708275252	APARTMENT	519077	Agent	Boris Property	Boris Teodorowych	1.0	1	1	6.0		['AIR_CONDITIONING', 'AIR_CONDITIONING_OTHER']
181972852	SALES_RESIDENTIAL	Charming Gordon Gem: Your Perfect First Home Awaits!	Offers Over $759,000	2023-10-04 11:32:05	2024-07-10 13:23:17	14 Schofield Place	Gordon	ACT	2906	-35.4683141714376	149.086897343412	HOUSE	917333	Agent	The Property Collective	Jacob Stanton	3.0	2	2	1.5	466.0	[]
181974189	SALES_RESIDENTIAL	Must be sold	$810,000+	2023-10-04 13:53:23	2024-01-10 14:00:11	318/15 Jardine Street	Kingston	ACT	2604	-35.3140780518927	149.141826560573	APARTMENT	572389	Agent	Belle Property Canberra	Dan McAlpine	3.0	2	2	2.0		[]
181974706	SALES_RESIDENTIAL	A LIFESTYLE STATEMENT IN THE HEART OF THE CITY	$575,000	2023-10-04 14:09:58	2024-06-03 09:45:35	317/19 Marcus Clarke Street	City	ACT	2601	-35.2850553441692	149.124817302071	APARTMENT	857403	Agent	Edge Dewi Radyanto	Dewi Radyanto	1.0	1	1	6.0		[]
181977371	SALES_RESIDENTIAL	Luxury Family Living at 30 Helen Circuit, Googong.	$975,000 - $1,025,000	2023-10-05 00:00:00	2024-04-12 10:42:41	30 Helen Circuit	Googong	NSW	2620	-35.4253139086847	149.236233360919	HOUSE	846943	Agent	Belle Property Queanbeyan	Aaron Papahatzis	4.0	2	2		419.0	['ALLOCATED_CAR_SPACE']
181977373	SALES_RESIDENTIAL	"""Jewel in the Crown"" Penthouse with Epic Lake and Canberra Landmark Views"	$8,000,000	2023-10-05 10:52:07	2024-05-23 12:23:09	405/45 Honeysett View	Kingston	ACT	2604	-35.3124160461657	149.149034006063	APARTMENT	12	Agent	Blackshaw Manuka	Mario Sanfrancesco	5.0	5	7	6.0		['ALLOCATED_CAR_SPACE']
181977439	SALES_RESIDENTIAL	Price, Position & Presence!	Auction 27/03/24	2023-10-05 00:00:00	2024-02-28 10:01:24	29 Cygnet Crescent	Red Hill	ACT	2603	-35.3430112146124	149.130679512511	HOUSE	572	Agent	LJ Hooker Dickson	Andrew Grenfell	4.0	2	3	6.0	393.0	['ALLOCATED_CAR_SPACE']
181977620	SALES_RESIDENTIAL	A Symphony of Timeless Elegance	$2,950,000 +	2023-10-05 09:52:02	2024-01-16 12:37:59	63 Flinders Way	Griffith	ACT	2603	-35.3255705716215	149.131274529607	HOUSE	854944	Agent	Blackshaw Woden	Rowan Glanville	4.0	2	4	2.5	1111.0	[]
181977726	SALES_RESIDENTIAL	Immaculate family sanctuary in an elevated, whisper quiet location	$1,695,000	2023-10-05 08:33:02	2024-01-30 11:05:44	14 Kaeppel Place	Isaacs	ACT	2607	-35.3685313031425	149.115385156633	HOUSE	73	Agent	Luton Properties Manuka	Sophie Luton	4.0	2	2	1.0	773.0	[]
181977813	SALES_RESIDENTIAL	"Lot 303 ""The Paddocks"""	$745,000-$765,000	2023-10-12 15:45:03	2024-01-10 00:15:00	Mount Burra - Lot 303	Burra	NSW	2620	-35.5993563605831	149.225246853769	RURAL	613419	Agent	LJ Hooker Queanbeyan - Jerrabomberra - Googong | Projects	Jon Stumbles		0	0			['BUSH_LOCATION', 'FENCING', 'MOUNTAIN_VIEWS', 'UNDERGROUND_POWERLINES']
181977814	SALES_RESIDENTIAL	"Lot 307 ""Mountain View"""	$715,000-$735,000	2023-10-12 16:04:08	2024-01-10 00:15:01	Mount Burra - Lot 307	Burra	NSW	2620	-35.5993563605831	149.225246853769	RURAL	613419	Agent	LJ Hooker Queanbeyan - Jerrabomberra - Googong | Projects	Jon Stumbles		0	0			['BUSH_LOCATION', 'FENCING', 'MOUNTAIN_VIEWS', 'UNDERGROUND_POWERLINES']
181978258	SALES_RESIDENTIAL	Luxury Residence with Studio	$1,399,000+	2023-10-05 12:22:07	2024-03-22 16:31:30	86 Robin Boyd Crescent	Taylor	ACT	2913	-35.1503846037678	149.097517136505	HOUSE	888993	Agent	New Door Properties	Gurjant Singh	5.0	4	2	5.5	520.0	[]
181980605	SALES_RESIDENTIAL	"Lot 308 ""Hideaway"""	$1,000,000	2023-10-12 16:08:24	2024-07-08 00:50:30	Mount Burra - Lot 308	Burra	NSW	2620	-35.5993563605831	149.225246853769	RURAL	613419	Agent	LJ Hooker Queanbeyan - Jerrabomberra - Googong | Projects	Jon Stumbles		0	0			['BUSH_LOCATION', 'FENCING', 'MOUNTAIN_VIEWS', 'UNDERGROUND_POWERLINES']
